Unnamed: 0;n_ships;own_mmsi;obst_mmsi;own_name;obst_name;own_callsign;obst_callsign;own_length;obst_length;own_width;obst_width;own_type;obst_type;own_nav_status;obst_nav_status;own_speed;obst_speed;multi_man_own;maneuver_made_own;maneuver_index_own;maneuver_stop_idx_own;r_maneuver_own;pre_man_dist_own;pre_man_t_cpa_own;post_man_dist_own;post_man_t_cpa_own;delta_speed_own;delta_course_own;multi_man_obst;maneuver_made_obst;maneuver_index_obst;maneuver_stop_idx_obst;r_maneuver_obst;pre_man_dist_obst;pre_man_t_cpa_obst;post_man_dist_obst;post_man_t_cpa_obst;delta_speed_obst;delta_course_obst;alpha_start;beta_start;r_cpa;alpha_cpa;beta_cpa;lon_maneuver;lat_maneuver;COLREG;single_COLREG_type;time;date_cpa;cpa_idx;start_idx;stop_idx;case;dataset;COLREGS_not_filt;COLREGS_filt;img_name;img_class
11;18;258296000;229061000;258296000;SEA CARGO EXPRESS;;9HA3034;0.0;119.0;0.0;;0.0;;0.0;0.0;8.609480406746032;1.962252449156746;True;False;8;8;4105.460074096441;;;;;0.0;0.0;True;True;11;16;2894.5976110678985;706.4;17.0;1221.8;0.0;-0.382366447438078;14.88665998524656;-175.3679217466413;358.1320782533587;1312.9814202798132;-145.35816725439452;73.5480827456055;5.33483;60.0371;-2.0;True;00:14:00;2019-01-01 07:29:00;16;1;15;3KDAF;encs_west;1;1.0;;
23;11;257287000;258841000;FJORDSOL;HAROYFJORD;LNPV;LDHE;20.0;123.12;;;;;0.0;0.0;7.634275173611111;3.2924444444444445;False;True;11;16;1250.964655775692;1315.9;0.0;1190.6;20.0;-6.6969166280214445;32.01645695791058;False;False;10;10;1499.6941188122344;;;;;0.0;0.0;-115.26800621622372;339.7319937837763;1140.496006130668;-103.98666628444992;239.2633337155501;5.74706;58.97435;-2.0;True;00:05:00;2019-01-01 20:49:00;13;8;13;3JHGF;encs_west;1;1.0;./img/257287000-258841000-3JHGF_-2.0.png;False
25;11;259386000;257144700;STAVANGERFJORD;BOKNAFJORD;LICY;3YQA;129.8;130.0;;;;;0.0;0.0;7.912798611111111;2.1397673611111108;False;True;2;9;1445.030259198746;319.9;5.0;1602.3;0.0;0.3401937385223066;17.24963043019087;False;True;2;9;1445.030259198746;319.9;5.0;1602.3;0.0;-0.4858005948425437;33.559664895461154;179.15964001829968;10.159640018299696;372.7262400207405;-120.06374715650054;86.18625284349943;5.572658;59.15258;-2.0;True;00:05:00;2019-01-01 20:42:00;6;1;6;3JHGF;encs_west;1;1.0;./img/259386000-257144700-3JHGF_-2.0.png;False
86;62;258031000;219011205;AQUA FJORD;ESVAGT CONTENDER;LMPG;OZAS2;60.0;48.0;;;;;0.0;0.0;5.797834821428571;3.138053695436508;False;True;7;12;437.98407505297087;278.0;8.0;1975.6;0.0;0.4172418904966273;-50.117515331508265;False;False;4;4;863.3275739833635;;;;;0.0;0.0;174.64522454479763;3.2702245447976392;362.5278472062352;-141.65539116529135;58.34460883470867;5.184412;60.388717;-2.0;True;00:07:00;2020-01-01 08:53:00;8;1;8;SPHYV;encs_west;2;2.0;./img/258031000-219011205-SPHYV_-2.0.png;False
94;62;314292000;258356000;SAMSKIP COMMANDER;FRAMFJORD;8PVT;LDXU3;101.0;67.1;;;;;0.0;0.0;6.978827401620369;4.359883174189815;False;True;7;13;1024.4444006387118;728.5;9.0;296.6;0.0;-0.5806127192774726;33.265286382658445;False;True;2;9;1849.8726983227791;163.8;13.0;660.8;0.0;-0.5542314562169639;40.68548264365418;-172.30914600780514;1.1908539921948882;259.6638596339544;-79.7162388074426;100.0337611925574;5.533423;59.090933;-2.0;True;00:12:00;2020-01-01 09:00:00;15;1;13;SPHYV;encs_west;2;2.0;./img/314292000-258356000-SPHYV_-2.0.png;False
108;25;257055930;257774600;HUFTAROY;UTNE;LEWQ;LCBJ;134.0;49.9;;;;;0.0;0.0;8.616944444444444;5.113095486111112;False;True;2;9;2306.8414098069247;1375.7;8.0;573.1;11.0;0.1432549624022829;12.21003911321596;False;False;6;6;1491.1388701257797;;;;;0.0;0.0;168.65899977990608;5.158999779906074;520.9942993929951;-120.45052952653846;69.92447047346158;5.323337;60.061667;-2.0;True;00:10:00;2020-01-01 10:13:00;12;1;11;6D5QA;encs_west;1;1.0;./img/257055930-257774600-6D5QA_-2.0.png;False
143;28;257028000;259405000;AMB RYGERVAKT;EIDSVAAG MARIN;LCWQ;JWLR;21.0;58.6;;;;;0.0;0.0;15.124666666666666;5.191467881944444;True;False;6;6;4373.988872871079;;;;;0.0;0.0;True;True;7;12;3664.0166866432287;799.1;9.0;1353.4;0.0;0.1159220636244784;-3.805278107393538;124.93329343726325;334.9332934372632;1151.535170978289;-144.96733040176989;81.57954459823009;5.19248;60.15565;-2.0;True;00:10:00;2020-01-01 11:30:00;12;1;11;NZY38;encs_west;1;1.0;;
163;28;311411000;266120000;311411000;FURE NORD;;SJKD;0.0;144.0;0.0;;0.0;;0.0;0.0;7.021362847222222;6.456679687499999;False;True;11;17;3164.7101115268047;3181.7;0.0;5284.6;0.0;-0.0753848537456529;28.86023422113663;False;False;9;9;3040.405502560471;;;;;0.0;0.0;-154.001007533839;326.59274246616104;2936.444920307552;-137.10619601235587;314.5188039876441;4.759911;60.839614;-2.0;True;00:06:00;2020-01-01 11:33:00;4;6;12;JAQSS;encs_west;1;1.0;./img/311411000-266120000-JAQSS_-2.0.png;False
219;36;258352500;257106900;ADMIRALEN;SEINES;LFJJ;LF5254;34.0;14.9;;;;;0.0;0.0;16.81590277777778;3.755042534722224;False;True;3;12;6958.314552389818;5206.7;7.0;1395.0;0.0;5.67540500504732;-49.06487622581984;False;False;7;7;3577.365021912075;;;;;0.0;0.0;-141.20083243749997;316.64291756250003;408.40749258553245;143.42556896638982;318.17556896638985;5.18982;60.1324;-2.0;True;00:10:00;2020-01-01 12:27:00;11;2;12;LQ2KJ;encs_west;1;1.0;./img/258352500-257106900-LQ2KJ_-2.0.png;False
222;19;257952600;257613890;KRISTIAN G.JEBSEN 2;;LECM;;17.0;;;;;;0.0;0.0;18.211333333333336;2.665063368055556;False;True;5;10;827.4628692575864;412.5;0.0;4994.2;0.0;0.7387655011060001;-38.82269451976284;False;True;3;12;2673.513381301841;1013.3;4.0;7146.5;0.0;-0.0451628636320649;0.0195082830894676;162.17982390637036;43.55482390637032;212.660410043809;-51.07364581212692;132.92635418787307;5.22042;60.3983;-2.0;True;00:05:00;2020-01-01 12:33:00;6;1;6;OWSRR;encs_west;3;4.0;./img/257952600-257613890-OWSRR_-2.0.png;False
234;76;258271000;259216000;BERGENSFJORD;MASTRAFJORD;LNZZ;LIAT;130.0;129.8;;;;;0.0;0.0;6.919076822916667;1.018495754665799;False;True;9;16;2298.586741891636;915.5;12.0;381.9;0.0;-6.49092961973414;50.751048635819366;False;True;12;17;984.1387757831744;380.7;13.0;873.6;0.0;4.920541357443871;106.32918668600168;165.79644145181302;14.296441451813031;83.84235206624378;120.30710043758975;30.18210043758973;5.494898;59.17304;-2.0;True;00:10:00;2020-01-01 12:45:00;15;6;16;7A898;encs_west;1;1.0;./img/258271000-259216000-7A898_-2.0.png;False
241;24;258999000;257056190;FJORDBRIS;LYSOY;LFNF;LEVT;36.7;134.0;;;;;0.0;0.0;17.129392361111112;8.908998842592593;False;False;4;4;1382.336084315249;;;;;0.0;0.0;False;False;4;4;1382.336084315249;;;;;0.0;0.0;-137.97302772896884;0.6519722710311671;221.2213823300092;61.35355687670221;234.8535568767022;5.31764;60.0572;-2.0;True;00:06:00;2020-01-01 12:49:00;7;1;7;YQWQV;encs_west;1;1.0;;
243;24;259299000;257029700;TRANEN;VIKINGEN;JWNP;LEVF;33.0;84.0;;;;;0.0;0.0;15.69412808641975;6.081787229938272;False;True;5;16;3089.4075370530177;323.4;9.0;3977.3;19.0;-12.936217279240982;-2.0731067411983086;False;True;9;16;549.2715630724017;141.0;0.0;3977.3;19.0;-5.39126341024347;-150.03394771861915;154.71477062182132;34.15227062182132;215.40522277790723;80.21148922956975;236.99273922956976;5.573987;59.794033;-2.0;True;00:09:00;2020-01-01 12:52:00;10;1;10;YQWQV;encs_west;1;1.0;./img/259299000-257029700-YQWQV_-2.0.png;False
284;94;219830000;257055660;HAPPY AVOCET;LOS 134;OXMY2;LFQI;146.2;18.0;;;;;0.0;0.0;7.51088888888889;5.386796006944445;False;False;6;6;2412.625692062484;;;;;0.0;0.0;False;True;2;5;3020.2457664898748;157.6;20.0;327.4;19.0;0.0386785409565941;5.624842397358304;-115.8168447752392;42.08159272476077;885.6535665823334;-94.6302722003012;85.6197277996988;5.550787;59.180129;-2.0;True;00:10:00;2020-01-01 14:42:00;16;1;11;TGM05;encs_west;1;2.0;;
294;94;258271000;259216000;BERGENSFJORD;MASTRAFJORD;LNZZ;LIAT;130.0;129.8;;;;;0.0;0.0;8.393023313492064;7.708628472222223;False;False;5;5;3710.09016062953;;;;;0.0;0.0;False;True;6;11;3671.09612105158;3403.7;20.0;1023.8;17.0;-4.13064198467199;32.69570196522658;-175.28538612348498;7.964613876515004;70.17214547098236;141.15071436424685;31.400714364246795;5.558617;59.158386;-2.0;True;00:07:00;2020-01-01 14:45:00;19;2;9;TGM05;encs_west;1;1.0;;
296;60;219830000;257055660;HAPPY AVOCET;LOS 134;OXMY2;LFQI;146.2;18.0;;;;;0.0;0.0;7.664418402777779;4.805232638888889;False;False;3;3;1988.746464484601;;;;;0.0;0.0;False;True;2;6;2197.8963851828908;546.1;11.0;848.9;11.0;-0.6413271190913705;5.715788221257907;-130.07502971411867;33.22477497338132;879.1470639204854;-94.55839304060684;85.69160695939317;5.546757;59.188029;-2.0;True;00:05:00;2020-01-01 14:42:00;11;1;6;LESEH;encs_west;1;2.0;;
321;75;257056190;258166000;LYSOY;SYKLUS;LEVT;LIQV;134.0;50.2;;;;;0.0;0.0;9.046413690476191;5.00836929563492;False;True;13;18;1812.1859314099124;237.1;19.0;383.2;19.0;0.3629285585420065;-4.355869865477665;False;False;11;11;2315.261188289557;;;;;0.0;0.0;152.9149437097948;357.2157249597949;492.2512061945563;-111.93952355613249;74.71086706886753;5.336222;60.01582;-2.0;True;00:14:00;2020-01-01 15:07:00;19;4;18;M69CE;encs_west;2;2.0;./img/257056190-258166000-M69CE_-2.0.png;True
322;75;257056190;314292000;LYSOY;SAMSKIP COMMANDER;LEVT;8PVT;134.0;101.0;;;;;0.0;0.0;9.246115845959595;7.445194917929293;False;True;13;18;828.5340427526204;613.4;16.0;610.2;0.0;0.3629285585420065;-4.355869865477665;False;True;11;17;1041.254786303523;641.8;15.0;552.3;0.0;0.2761352307491496;-12.773147672038752;127.32874192322936;334.42835129822936;591.9732510848764;-118.42099610011708;69.97939452488293;5.336222;60.01582;-2.0;True;00:11:00;2020-01-01 15:05:00;17;5;16;M69CE;encs_west;2;2.0;./img/257056190-314292000-M69CE_-2.0.png;True
339;75;259299000;257029700;TRANEN;VIKINGEN;JWNP;LEVF;33.0;84.0;;;;;0.0;0.0;17.53934027777778;6.49084201388889;False;True;14;20;2143.3969021158914;683.6;16.0;2117.6;0.0;-6.340138976760749;-10.895919606544034;False;False;14;14;2143.3969021158914;;;;;0.0;0.0;173.03474098690154;38.534740986901525;472.3816465528772;-118.5979975202879;69.15200247971207;5.598823;59.804633;-2.0;True;00:06:00;2020-01-01 15:05:00;17;11;17;M69CE;encs_west;1;1.0;./img/259299000-257029700-M69CE_-2.0.png;False
383;44;259299000;258166000;TRANEN;SYKLUS;JWNP;LIQV;33.0;50.2;;;;;0.0;0.0;17.150827546296295;4.760218750000001;True;False;9;9;6803.039758813703;;;;;0.0;0.0;True;True;10;16;6004.205068116853;1022.1;16.0;721.8;17.0;-0.0854615590547753;-26.16328953468277;170.58000659250865;358.58000659250865;750.6138820991812;-68.46321041006107;102.42741458993896;5.18152;60.190867;-2.0;True;00:15:00;2020-01-01 16:41:00;18;2;17;QYI68;encs_west;1;1.0;;
387;62;219347000;257062170;STAVANGERFJORD;HILLEFJORD;OYOW2;LFJQ;170.0;85.0;;;;;0.0;0.0;11.419594907407408;7.0307407407407405;False;False;9;9;2281.0834114516715;;;;;0.0;0.0;False;True;11;19;1658.1688755974112;1076.2;13.0;1954.7;0.0;-0.1050220823848238;32.232447392456315;-124.04195742879092;19.58304257120912;1070.3695296485191;122.8631988530013;287.5819488530012;5.500701;59.736745;-2.0;True;00:09:00;2020-01-01 16:40:00;15;5;14;1HBBD;encs_west;2;2.0;;
401;62;259299000;258166000;TRANEN;SYKLUS;JWNP;LIQV;33.0;50.2;;;;;0.0;0.0;17.769577132936508;4.758611111111111;True;False;8;8;6004.396503396484;;;;;0.0;0.0;True;False;8;8;6004.396503396484;;;;;0.0;0.0;167.4004011544257;345.90040115442577;751.1072160484106;-68.45700107182918;102.43362392817085;5.1802;60.2007;-2.0;True;00:14:00;2020-01-01 16:41:00;16;1;15;1HBBD;encs_west;1;1.0;;
406;43;219347000;257062170;STAVANGERFJORD;HILLEFJORD;OYOW2;LFJQ;170.0;85.0;;;;;0.0;0.0;11.419594907407408;7.0307407407407405;False;False;9;9;2280.7107006369715;;;;;0.0;0.0;False;True;11;19;1657.6749892545329;1076.2;13.0;1954.7;0.0;-0.1050220823848238;32.232447392456315;-124.0291835248888;19.5958164751112;1069.8754506950836;122.85909115194129;287.57784115194124;5.500701;59.736745;-2.0;True;00:09:00;2020-01-01 16:40:00;15;5;14;2X40E;encs_west;2;2.0;;
419;43;259299000;258166000;TRANEN;SYKLUS;JWNP;LIQV;33.0;50.2;;;;;0.0;0.0;17.769577132936508;4.758611111111111;True;False;8;8;6004.247598159165;;;;;0.0;0.0;True;False;8;8;6004.247598159165;;;;;0.0;0.0;167.3954975956408;345.89549759564085;750.7125481833917;-68.46196788953742;102.4286571104626;5.1802;60.2007;-2.0;True;00:14:00;2020-01-01 16:41:00;16;1;15;2X40E;encs_west;1;1.0;;
423;57;257144700;258271000;BOKNAFJORD;BERGENSFJORD;3YQA;LNZZ;130.0;130.0;;;;;0.0;0.0;7.196924321338385;1.4825844504616474;False;True;5;14;3616.226382570646;3054.1;9.0;51.9;0.0;-4.772388911605557;45.45207847616328;False;True;12;18;641.1748123561977;208.5;0.0;1340.4;0.0;6.933499608597744;-207.91127917421983;149.81058047201287;20.18558047201291;61.35601030054087;-126.01230644307772;267.42519355692224;5.521773;59.167014;-2.0;True;00:11:00;2020-01-01 16:53:00;15;4;15;9KAOM;encs_west;1;1.0;./img/257144700-258271000-9KAOM_-2.0.png;False
427;57;258999000;257492000;FJORDBRIS;KV BERGEN;LFNF;LAQM;36.7;93.2;;;;;0.0;0.0;17.000111400462963;6.16496021412037;False;True;8;14;3879.232339007294;980.4;12.0;1066.2;0.0;0.2188826587886154;31.02398110978282;False;False;7;7;4543.856494212818;;;;;0.0;0.0;-178.23272302374394;335.892276976256;522.9869023216489;125.55543998613877;308.1804399861388;5.33175;60.0205;-2.0;True;00:12:00;2020-01-01 16:51:00;13;1;13;9KAOM;encs_west;2;2.0;./img/258999000-257492000-9KAOM_-2.0.png;False
434;63;257175000;258166000;RYGERFONN;SYKLUS;JWMA;LIQV;26.0;50.2;;;;;0.0;0.0;15.69859375;4.592679811507937;False;True;11;19;518.4949083645796;457.0;0.0;5345.2;0.0;-0.1505514825613101;-75.3992415260684;False;True;6;12;3871.1688829086456;1239.2;10.0;819.9;0.0;-0.0224698886004066;-22.064011054518254;146.77596361164944;4.525963611649458;195.1028959293004;-41.16703647016256;140.8329635298374;5.175483;60.3435;-2.0;True;00:07:00;2020-01-01 17:14:00;12;5;12;8IE2L;encs_west;1;1.0;./img/257175000-258166000-8IE2L_-2.0.png;False
474;63;259479000;257067970;TEISTEN;STADT KINN;JWNM;LFWE;33.0;34.3;;;;;0.0;0.0;17.56077546296296;4.582105758101852;False;True;8;17;5532.655706801213;4012.2;11.0;2381.5;0.0;-5.065441085334582;45.626428340964246;False;False;9;9;4941.060134222209;;;;;0.0;0.0;139.58987591091912;20.214875910919133;932.0223602468016;113.62596843574325;276.12596843574323;5.36258;61.0745;-2.0;True;00:12:00;2020-01-01 17:55:00;15;3;15;WWNJ8;encs_west;5;5.0;./img/259479000-257067970-WWNJ8_-2.0.png;False
475;63;259479000;258189000;TEISTEN;STADT SLOEVAAG;JWNM;JWPO;33.0;30.0;;;;;0.0;0.0;17.432164351851856;4.732486979166667;False;True;8;17;8406.693288088964;6796.4;11.0;2895.5;0.0;-5.065441085334582;45.626428340964246;False;False;6;6;9557.188707983116;;;;;0.0;0.0;151.8598265949849;29.54732659498489;3015.7499929536566;140.61436358428287;279.89561358428284;5.36258;61.0745;-2.0;True;00:06:00;2020-01-01 17:57:00;17;3;9;WWNJ8;encs_west;4;5.0;./img/259479000-258189000-WWNJ8_-2.0.png;False
476;63;259479000;258189000;TEISTEN;STADT SLOEVAAG;JWNM;JWPO;33.0;30.0;;;;;0.0;0.0;17.689386574074074;4.791433738425925;False;False;13;13;4941.41644166933;;;;;0.0;0.0;False;False;13;13;4941.41644166933;;;;;0.0;0.0;-179.63050406310725;24.74449593689277;3015.7499929536566;140.61436358428287;279.89561358428284;5.45105;61.0761;-2.0;True;00:06:00;2020-01-01 17:57:00;17;10;16;WWNJ8;encs_west;3;3.0;;
496;63;259479000;257067970;TEISTEN;STADT KINN;JWNM;LFWE;33.0;34.3;;;;;0.0;0.0;17.56077546296296;4.582105758101852;False;True;7;17;5537.656372509942;4012.2;10.0;2140.5;0.0;-10.228537803377192;-0.2013338863234023;False;False;8;8;4945.391483998007;;;;;0.0;0.0;139.6079674189712;20.23296741897117;932.4513284885109;113.65175157236428;276.1517515723643;5.36258;61.0745;-2.0;True;00:12:00;2020-01-01 17:55:00;14;2;14;SIFP6;encs_west;5;5.0;./img/259479000-257067970-SIFP6_-2.0.png;False
497;63;259479000;258189000;TEISTEN;STADT SLOEVAAG;JWNM;JWPO;33.0;30.0;;;;;0.0;0.0;17.432164351851856;4.732486979166667;False;True;7;17;8414.122253093303;6796.4;10.0;3233.0;0.0;-10.228537803377192;-0.2013338863234023;False;False;5;5;9565.78476237052;;;;;0.0;0.0;151.87032236956102;29.55782236956105;3018.217634631403;140.63003260217695;279.9112826021769;5.36258;61.0745;-2.0;True;00:06:00;2020-01-01 17:57:00;16;2;8;SIFP6;encs_west;4;5.0;./img/259479000-258189000-SIFP6_-2.0.png;False
498;63;259479000;258189000;TEISTEN;STADT SLOEVAAG;JWNM;JWPO;33.0;30.0;;;;;0.0;0.0;17.689386574074074;4.791433738425925;False;False;12;12;4945.534885126184;;;;;0.0;0.0;False;False;12;12;4945.534885126184;;;;;0.0;0.0;-179.64521435669369;24.729785643306325;3018.217634631403;140.63003260217695;279.9112826021769;5.45105;61.0761;-2.0;True;00:06:00;2020-01-01 17:57:00;16;9;15;SIFP6;encs_west;3;3.0;;
508;38;258161000;257085210;SEIVAAG;SEIHAUST;LHDO;LFIR;56.0;50.0;;;;;0.0;0.0;6.165295138888888;1.9845727926587304;False;False;4;4;3342.476327515272;;;;;0.0;0.0;False;False;4;4;3342.476327515272;;;;;0.0;0.0;177.5971607245591;332.2221607245591;2142.907039514316;121.46393904143945;282.58893904143946;5.250928;60.174622;-2.0;True;00:07:00;2020-01-01 18:03:00;14;1;8;009K4;encs_west;2;2.0;;
513;11;219347000;257372000;STAVANGERFJORD;OESTERBRIS;OYOW2;LDKM;170.0;74.2;;;;;0.0;0.0;11.44076215277778;6.477578993055556;False;True;9;13;952.3165125104156;99.5;11.0;1273.2;0.0;-0.0869014868953277;-29.62654440854148;False;False;6;6;1863.4438252869336;;;;;0.0;0.0;-160.5984612359916;358.4015387640084;491.1061901462868;-139.34090927699026;53.10830947300975;5.15815;60.2465;-2.0;True;00:10:00;2020-01-01 18:10:00;11;1;11;JGQQO;encs_west;1;1.0;./img/219347000-257372000-JGQQO_-2.0.png;False
519;29;257372000;258340000;OESTERBRIS;SVEAFJORD;LDKM;LCNI;74.2;59.0;;;;;0.0;0.0;6.23549537037037;5.3598680555555545;True;False;8;8;536.739135893777;;;;;0.0;0.0;True;False;8;8;536.739135893777;;;;;0.0;0.0;136.88747662460935;353.1374766246093;207.38141189605315;105.06314439475796;284.563144394758;5.138484;60.399856;-2.0;True;00:15:00;2020-01-01 19:04:00;18;1;16;V2O8B;encs_west;1;1.0;;
531;46;257372000;258340000;OESTERBRIS;SVEAFJORD;LDKM;LCNI;74.2;59.0;;;;;0.0;0.0;6.180797371031746;5.319562251984128;False;True;2;5;445.4544196660244;389.9;3.0;84.7;10.0;0.0018875703230354;-3.7997642292597895;False;False;4;4;368.12977331369706;;;;;0.0;0.0;-175.0064474582615;354.7435525417385;207.8130169166728;104.6379213216848;284.13792132168487;5.125691;60.401978;-2.0;True;00:07:00;2020-01-01 19:04:00;10;1;8;IM3SQ;encs_west;1;2.0;./img/257372000-258340000-IM3SQ_-2.0.png;False
543;19;258901000;258394000;AQUA JUNIOR;SEIVIK;LEHA;LDYY;69.0;21.5;;;;;0.0;0.0;5.276321072048612;4.012817382812501;False;True;2;6;1551.6788488601628;629.3;20.0;399.9;20.0;0.2849984699037797;-6.957113093525886;False;False;9;9;1038.5699494978658;;;;;0.0;0.0;-177.97328407853814;354.6517159214618;505.7975286614207;-125.00838782739532;64.8666121726047;5.713027;60.030633;-2.0;True;00:16:00;2020-01-01 21:00:00;19;1;17;3IDKT;encs_west;1;1.0;./img/258901000-258394000-3IDKT_-2.0.png;False
544;6;249075000;257294500;249075000;VOLT COLLECTOR II;;LGVL;0.0;32.49;0.0;;0.0;;0.0;0.0;5.118822699652777;3.543085394965278;False;True;6;11;1490.2680564247478;175.4;18.0;1373.3;0.0;-1.072041441845319;-20.895465534304584;False;False;5;5;1589.565151228473;;;;;0.0;0.0;-145.53930544119535;38.96069455880459;1232.1051903145285;-137.95457984613935;47.79542015386067;4.748376;60.776255;-2.0;True;00:08:00;2021-01-01 01:36:00;9;1;9;F2NHG;encs_west;1;1.0;./img/249075000-257294500-F2NHG_-2.0.png;False
546;6;257299000;257294500;LOS 131;VOLT COLLECTOR II;LEYF;LGVL;18.0;32.49;;;;;0.0;0.0;10.622473958333332;3.5408246527777787;False;False;6;6;2223.7137270790945;;;;;0.0;0.0;False;False;6;6;2223.7137270790945;;;;;0.0;0.0;-137.13713910250524;318.0503608974947;1222.9345403577422;-139.96460322838254;46.41039677161748;4.74297;60.783533;-2.0;True;00:06:00;2021-01-01 01:36:00;9;3;9;F2NHG;encs_west;1;1.0;;
609;32;258352500;259367000;ADMIRALEN;ISLAND VALIANT;LFJJ;JWMY;34.0;93.4;;;;;0.0;0.0;17.62431547619048;4.798227926587302;False;True;14;19;2842.373291810911;1015.5;16.0;1554.5;0.0;-0.377916723421583;1.3311304167132807;False;True;15;19;2094.466340144906;357.1;17.0;1554.5;0.0;0.0169692241087831;-9.780914302751809;-170.55326051101278;27.071739488987205;210.48097301181343;109.0937949543351;279.09379495433507;5.17116;60.3464;-2.0;True;00:07:00;2021-01-01 12:07:00;18;11;18;9BVO0;encs_west;2;2.0;./img/258352500-259367000-9BVO0_-2.0.png;False
622;25;258352500;259367000;ADMIRALEN;ISLAND VALIANT;LFJJ;JWMY;34.0;93.4;;;;;0.0;0.0;17.62431547619048;4.798227926587302;False;True;14;19;2849.3530300754137;1015.5;16.0;1554.5;0.0;-0.377916723421583;1.3311304167132807;False;True;15;19;2097.576148796508;357.1;17.0;1554.5;0.0;0.0169692241087831;-9.780914302751809;-170.3693683644965;27.255631635503512;212.71224694408104;108.94027873331642;278.9402787333164;5.17116;60.3464;-2.0;True;00:07:00;2021-01-01 12:07:00;18;11;18;U9VHR;encs_west;2;2.0;./img/258352500-259367000-U9VHR_-2.0.png;False
624;8;258352500;259367000;ADMIRALEN;ISLAND VALIANT;LFJJ;JWMY;34.0;93.4;;;;;0.0;0.0;17.62431547619048;4.798227926587302;False;True;7;12;2837.255245831788;1015.5;9.0;1554.5;0.0;-0.377916723421583;1.326603815199163;False;True;8;12;2092.180723551386;357.1;10.0;1554.5;0.0;0.0168464531532701;-9.87286904192719;-170.6900987799049;26.93490122009512;208.81745616686305;109.18953108243072;279.18953108243073;5.17116;60.3464;-2.0;True;00:07:00;2021-01-01 12:07:00;11;4;11;3BQ76;encs_west;1;1.0;./img/258352500-259367000-3BQ76_-2.0.png;False
636;12;257056190;230994000;LYSOY;MISANA;LEVT;OJNB;134.0;165.75;;;;;0.0;0.0;9.091197916666667;7.07016617063492;False;False;4;4;797.8077086616803;;;;;0.0;0.0;False;True;6;11;590.9950338200821;272.3;9.0;820.7;0.0;-0.0228333943552172;10.24153959668442;-175.2924069905959;10.957593009404116;433.4481514552801;-131.41325040807726;56.08674959192272;5.318103;60.044133;-2.0;True;00:07:00;2021-01-01 13:33:00;8;1;8;VR1PF;encs_west;1;1.0;;
647;32;257382000;257055860;KOMMANDOEREN;SAMNOY;LFDW;LEWS;88.0;134.0;;;;;0.0;0.0;6.269791666666666;1.2220096503363715;False;True;13;17;731.8951086050538;92.7;14.0;1420.8;0.0;-4.471407013033282;-9.24290749674268;False;True;12;17;1111.00716919379;115.6;14.0;1420.8;0.0;6.511511906140326;134.42136437433365;-153.30080765527472;355.4999735947253;86.40092592096948;42.80976570746986;32.059765707469886;5.43099;60.138709;-2.0;True;00:08:00;2021-01-01 14:02:00;15;7;15;2PM6Y;encs_west;2;2.0;./img/257382000-257055860-2PM6Y_-2.0.png;False
648;32;258999000;229061000;FJORDBRIS;SEA CARGO EXPRESS;LFNF;9HA3034;36.7;119.0;;;;;0.0;0.0;16.616555555555557;7.439348958333333;False;True;15;18;2484.111160958784;1961.4;16.0;649.9;0.0;-0.1674605626559486;14.854789954518148;False;False;16;16;1954.008436522221;;;;;0.0;0.0;154.5475949313907;15.422594931390718;655.7846597778932;-131.34711352019832;67.65288647980171;5.162967;60.245567;-2.0;True;00:05:00;2021-01-01 14:06:00;19;14;19;2PM6Y;encs_west;1;1.0;./img/258999000-229061000-2PM6Y_-2.0.png;False
649;32;259998000;257061910;PIRHOLM;HJELLESTAD;LCVJ;LFNQ;75.0;44.0;;;;;0.0;0.0;4.814074652777777;3.436328125;False;True;13;19;2201.808858643276;2232.1;0.0;2177.8;0.0;-0.0418072540676348;29.07655243935204;False;True;12;20;2328.427419955367;1900.3;16.0;2217.4;0.0;2.403179837136011;40.53991813303723;122.59501457678655;26.22001457678652;2112.7168196424213;124.51212947318162;47.44962947318159;5.165814;60.25122;-2.0;True;00:05:00;2021-01-01 14:06:00;19;11;16;2PM6Y;encs_west;1;1.0;./img/259998000-257061910-2PM6Y_-2.0.png;False
655;119;257382000;257055860;KOMMANDOEREN;SAMNOY;LFDW;LEWS;88.0;134.0;;;;;0.0;0.0;6.269791666666666;1.2220096503363715;False;True;7;11;736.2090192329807;92.7;8.0;1420.8;0.0;-4.471407013033282;-9.242878395008288;False;True;6;11;1116.3213560619513;115.6;8.0;1420.8;0.0;6.511518898558117;134.3607461138;-152.26701640765037;356.5337648423496;88.36068130112652;44.21152153561888;33.46152153561886;5.43099;60.138709;-2.0;True;00:08:00;2021-01-01 14:02:00;9;1;9;1Y7VO;encs_west;1;1.0;./img/257382000-257055860-1Y7VO_-2.0.png;False
657;119;258999000;229061000;FJORDBRIS;SEA CARGO EXPRESS;LFNF;9HA3034;36.7;119.0;;;;;0.0;0.0;16.61048225308642;7.402730516975309;False;True;11;18;1413.5541765351568;796.0;12.0;3711.7;0.0;-0.035972869178428;6.481906797347708;False;False;8;8;3040.102896284933;;;;;0.0;0.0;150.06253840738188;353.81253840738185;686.7542937615958;-130.85560562185069;68.14439437814933;5.165207;60.2279;-2.0;True;00:09:00;2021-01-01 14:06:00;13;4;13;1Y7VO;encs_west;3;3.0;./img/258999000-229061000-1Y7VO_-2.0.png;False
658;119;258999000;257061910;FJORDBRIS;HJELLESTAD;LFNF;LFNQ;36.7;44.0;;;;;0.0;0.0;16.64870833333334;3.991767361111111;False;False;8;8;2745.8785297241334;;;;;0.0;0.0;False;False;8;8;2745.8785297241334;;;;;0.0;0.0;155.45479584763956;7.45479584763955;1118.6130072549654;-148.8567548608798;65.64324513912018;5.16978;60.254;-2.0;True;00:05:00;2021-01-01 14:04:00;11;6;11;1Y7VO;encs_west;3;3.0;;
659;119;258999000;259998000;FJORDBRIS;PIRHOLM;LFNF;LCVJ;36.7;75.0;;;;;0.0;0.0;16.62620138888889;4.7939791666666665;False;False;6;6;2087.834907266381;;;;;0.0;0.0;False;True;7;13;1367.617991253429;249.9;8.0;3636.0;0.0;-0.0448559459547324;30.66573395669355;-173.73306030429467;357.89193969570533;141.00656013108673;63.137771155280895;239.6377711552809;5.1837;60.2705;-2.0;True;00:05:00;2021-01-01 14:02:00;9;4;9;1Y7VO;encs_west;3;3.0;;
663;11;258999000;229061000;FJORDBRIS;SEA CARGO EXPRESS;LFNF;9HA3034;36.7;119.0;;;;;0.0;0.0;16.616555555555557;7.439348958333333;False;True;4;11;1399.5595199919148;796.0;5.0;3711.7;0.0;-0.0405626025928356;5.818195187053727;False;False;3;3;1952.8753467643544;;;;;0.0;0.0;154.60171800187746;15.476718001877495;650.4775169058496;-131.43458577571383;67.56541422428616;5.165207;60.2279;-2.0;True;00:05:00;2021-01-01 14:06:00;6;1;6;RU4N0;encs_west;1;1.0;./img/258999000-229061000-RU4N0_-2.0.png;False
669;9;257065290;257994180;;;;;;;;;;;0.0;0.0;12.26929904513889;2.488323567708333;False;True;10;15;620.4292143347216;200.0;0.0;2235.4;0.0;1.9110189641091768;-22.896591977334666;False;True;6;15;3340.493108808938;1236.0;10.0;2235.4;0.0;0.1739560193913512;5.572864203012437;-126.58192379300864;339.4180762069914;68.58950357015341;-119.13186453954565;56.49313546045435;5.164889;60.346097;-2.0;True;00:08:00;2021-01-01 15:56:00;12;4;12;8SDMT;encs_west;1;1.0;./img/257065290-257994180-8SDMT_-2.0.png;False
692;31;258108500;257071070;RYGERCRUISE;;LNWS;;23.33;;;;;;0.0;0.0;11.738979166666669;3.271545138888889;False;False;5;5;2401.6944539220613;;;;;0.0;0.0;False;False;5;5;2401.6944539220613;;;;;0.0;0.0;124.06344943317862;19.93844943317863;248.7471406870848;82.08518312382846;282.8351831238284;5.291824;60.4027;-2.0;True;00:05:00;2021-01-01 17:54:00;8;3;8;381VR;encs_west;1;1.0;;
694;31;259299000;210055000;TRANEN;UBC CORK;JWNP;5BSP2;33.0;117.0;;;;;0.0;0.0;15.563730709876545;6.528353587962964;False;True;8;12;2571.39800497706;1673.2;10.0;3381.9;0.0;-10.987455083352684;-41.21451330017253;False;True;4;13;4510.152308958089;3403.6;8.0;788.0;17.0;0.1722545926005585;-28.6574080055885;-157.36731898476722;9.25768101523277;1013.6332374187446;49.75831862648894;263.508318626489;5.1998;60.3059;-2.0;True;00:09:00;2021-01-01 18:04:00;18;1;10;381VR;encs_west;1;1.0;./img/259299000-210055000-381VR_-2.0.png;False
716;14;308874000;259936000;ROMI;STAV VIKING;C6US6;LAGZ7;88.25;144.15;;;;;0.0;0.0;2.899413273358586;1.216050939078283;False;False;6;6;3785.3329747857015;;;;;0.0;0.0;False;False;6;6;3785.3329747857015;;;;;0.0;0.0;-142.80875367779183;337.2849963222082;3354.4097319796847;-144.23594626619592;315.6390537338041;4.353533;60.687278;-2.0;True;00:11:00;2021-01-01 23:01:00;11;1;12;LWGNV;encs_west;1;1.0;;
724;4;209762000;258356000;FLENSBURG;FRAMFJORD;5BSX3;LDXU3;135.0;67.1;;;;;0.0;0.0;8.657135416666666;3.2408995225694444;False;True;7;11;2479.25289149776;1673.8;10.0;3056.0;0.0;-0.5602783007396841;23.7817056764488;False;True;7;13;2479.25289149776;1673.8;10.0;3618.5;0.0;-0.4094605434302178;-65.3164723744309;-166.54251702895877;30.207482971041227;1976.1065684825803;-141.86576509395022;292.63423490604976;5.169;60.352729;-2.0;True;00:08:00;2019-01-02 06:50:00;9;1;9;B9TDC;encs_west;1;1.0;./img/209762000-258356000-B9TDC_-2.0.png;False
735;54;258296000;257010550;258296000;SAS LEO;;LG9990;0.0;15.0;0.0;;0.0;;0.0;0.0;8.835124007936505;3.4687679811507937;False;False;4;4;5910.010829093294;;;;;0.0;0.0;False;False;4;4;5910.010829093294;;;;;0.0;0.0;-116.5244821490305;27.87590847596951;4461.274218202705;-126.88211624346354;75.81319625653647;5.335551;60.046343;-2.0;True;00:07:00;2019-01-02 07:55:00;11;1;8;16AB1;encs_west;2;2.0;;
744;19;236342000;241454000;KEY MARIN;LEONTIOS H;ZDHP4;SVCL6;88.43;250.0;;;;;0.0;0.0;5.248940972222222;2.1914127604166667;False;True;2;7;1921.716966673292;1352.8;9.0;1002.0;10.0;-0.0168626205515707;-8.112326439896446;False;False;3;3;1792.1314823416278;;;;;0.0;0.0;164.23828086244194;322.2382808624419;1065.134367110555;106.43377821521167;276.4337782152117;4.871879;60.649771;-2.0;True;00:05:00;2019-01-02 09:26:00;10;1;6;NKF13;encs_west;4;5.0;./img/236342000-241454000-NKF13_-2.0.png;False
745;19;236342000;257107000;KEY MARIN;AJAX -;ZDHP4;LLEO;88.43;42.0;;;;;0.0;0.0;5.248940972222222;2.2294267216435184;False;True;2;7;1972.6247818579184;1006.4;5.0;984.1;8.0;-0.0168626205515707;-8.112326439896446;False;True;2;5;1972.6247818579184;1006.4;5.0;1009.6;7.0;-0.608478264805785;3.1371090479590324;173.19274322341545;323.9427432234155;1054.2192608750788;110.73883809135768;278.23883809135765;4.871879;60.649771;-2.0;True;00:06:00;2019-01-02 09:26:00;10;1;7;NKF13;encs_west;4;5.0;./img/236342000-257107000-NKF13_-2.0.png;False
747;19;236342000;258312000;KEY MARIN;TENAX;ZDHP4;LDYI;88.43;38.27;;;;;0.0;0.0;5.248940972222222;2.129719618055556;False;True;2;7;1929.710561198233;1387.6;8.0;1040.4;10.0;-0.0168626205515707;-8.112326439896446;False;True;5;10;1533.7769329338614;1063.4;10.0;950.0;11.0;-0.3240616847060775;4.680132844139341;164.8273781611382;323.0773781611382;1000.732231918206;95.2371935719368;267.1121935719368;4.871879;60.649771;-2.0;True;00:05:00;2019-01-02 09:27:00;11;1;6;NKF13;encs_west;4;5.0;./img/236342000-258312000-NKF13_-2.0.png;False
748;19;236342000;259514000;KEY MARIN;VELOX;ZDHP4;LMQW;88.43;38.27;;;;;0.0;0.0;5.248940972222222;2.1096911168981483;False;True;2;7;2050.348116784075;1396.0;9.0;1014.8;10.0;-0.0168626205515707;-8.112326439896446;False;False;4;4;1786.5077105906946;;;;;0.0;0.0;162.41504940170205;324.54004940170205;1049.8582428118525;109.05277265702895;275.302772657029;4.871879;60.649771;-2.0;True;00:06:00;2019-01-02 09:27:00;11;1;7;NKF13;encs_west;4;5.0;./img/236342000-259514000-NKF13_-2.0.png;False
753;19;236342000;241454000;KEY MARIN;LEONTIOS H;ZDHP4;SVCL6;88.43;250.0;;;;;0.0;0.0;5.248940972222222;2.1914127604166667;False;True;2;7;1921.716966673292;1352.8;9.0;1002.0;10.0;-0.0168626205515707;-8.112326439896446;False;False;3;3;1792.1314823416278;;;;;0.0;0.0;164.23828086244194;322.2382808624419;1065.134367110555;106.43377821521167;276.4337782152117;4.871879;60.649771;-2.0;True;00:05:00;2019-01-02 09:26:00;10;1;6;5TCZT;encs_west;4;5.0;./img/236342000-241454000-5TCZT_-2.0.png;False
754;19;236342000;257107000;KEY MARIN;AJAX -;ZDHP4;LLEO;88.43;42.0;;;;;0.0;0.0;5.248940972222222;2.2294267216435184;False;True;2;7;1972.6247818579184;1006.4;5.0;984.1;8.0;-0.0168626205515707;-8.112326439896446;False;True;2;5;1972.6247818579184;1006.4;5.0;1009.6;7.0;-0.608478264805785;3.1371090479590324;173.19274322341545;323.9427432234155;1054.2192608750788;110.73883809135768;278.23883809135765;4.871879;60.649771;-2.0;True;00:06:00;2019-01-02 09:26:00;10;1;7;5TCZT;encs_west;4;5.0;./img/236342000-257107000-5TCZT_-2.0.png;False
756;19;236342000;258312000;KEY MARIN;TENAX;ZDHP4;LDYI;88.43;38.27;;;;;0.0;0.0;5.248940972222222;2.129719618055556;False;True;2;7;1929.710561198233;1387.6;8.0;1040.4;10.0;-0.0168626205515707;-8.112326439896446;False;True;5;10;1533.7769329338614;1063.4;10.0;950.0;11.0;-0.3240616847060775;4.680132844139341;164.8273781611382;323.0773781611382;1000.732231918206;95.2371935719368;267.1121935719368;4.871879;60.649771;-2.0;True;00:05:00;2019-01-02 09:27:00;11;1;6;5TCZT;encs_west;4;5.0;./img/236342000-258312000-5TCZT_-2.0.png;False
757;19;236342000;259514000;KEY MARIN;VELOX;ZDHP4;LMQW;88.43;38.27;;;;;0.0;0.0;5.248940972222222;2.1096911168981483;False;True;2;7;2050.348116784075;1396.0;9.0;1014.8;10.0;-0.0168626205515707;-8.112326439896446;False;False;4;4;1786.5077105906946;;;;;0.0;0.0;162.41504940170205;324.54004940170205;1049.8582428118525;109.05277265702895;275.302772657029;4.871879;60.649771;-2.0;True;00:06:00;2019-01-02 09:27:00;11;1;7;5TCZT;encs_west;4;5.0;./img/236342000-259514000-5TCZT_-2.0.png;False
770;13;258242000;259074000;FJORDKATT;HAVILA CLIPPER;JWLV;LMZT;27.0;80.4;;;;;0.0;0.0;12.438302083333337;3.868782986111112;False;False;3;3;5570.327209419561;;;;;0.0;0.0;False;True;4;10;4871.752765689171;238.7;10.0;5271.0;0.0;-0.0551936577910729;20.53813341259222;-119.92568713295408;26.074312867045933;4326.460175478343;-121.19507738244104;36.304922617558965;5.257977;60.4044;-2.0;True;00:05:00;2019-01-02 11:26:00;5;1;6;7KXLI;encs_west;1;1.0;;
777;57;257684000;259366000;BERGEN VIKING;259366000;3YLF;;95.16;0.0;;0.0;;0.0;0.0;0.0;5.468164457070707;1.1835327888257576;False;True;2;5;3142.478986405489;1514.4;12.0;807.0;13.0;0.0229418688225622;-5.420669031739963;False;False;6;6;2145.979806521942;;;;;0.0;0.0;169.80327289295704;336.17827289295707;613.8705075176686;106.93898329403292;276.18898329403294;4.878996;60.63865;-2.0;True;00:11:00;2019-01-02 12:42:00;14;1;12;6MC0Q;encs_west;1;1.0;./img/257684000-259366000-6MC0Q_-2.0.png;False
779;57;258729000;205767000;EIDSVAAG PIONER;205767000;LFTA;;75.0;0.0;;0.0;;0.0;0.0;0.0;6.224911747685186;3.9866095196759264;False;False;11;11;4946.442863310974;;;;;0.0;0.0;False;True;12;18;4808.676163976943;3580.6;20.0;5174.0;0.0;0.5543787226607142;-58.00093634897003;127.13548109676871;22.635481096768693;4646.929490534587;144.81689249821437;309.9418924982144;4.828275;60.76984;-2.0;True;00:06:00;2019-01-02 12:42:00;14;8;14;6MC0Q;encs_west;1;1.0;;
800;74;259402000;257560700;BASTO II;;LIPU;;109.0;;;;;;0.0;0.0;7.644322916666669;4.444317708333334;False;False;7;7;2697.064722990541;;;;;0.0;0.0;False;True;8;12;2490.093044446337;851.1;10.0;1609.5;13.0;-0.072498777448994;-8.500789936938492;147.8458889052242;17.845888905224204;2085.8558435328214;-144.0681581167066;62.18184188329342;5.33543;59.9807;-2.0;True;00:05:00;2019-01-02 15:00:00;12;5;10;QV6LZ;encs_west;4;4.0;;
804;74;304619000;257002270;ALK;ABBE;V2BU3;LETX;132.57;18.46;;;;;0.0;0.0;7.618746843434343;4.920471117424243;False;False;6;6;1325.0265242628163;;;;;0.0;0.0;False;False;6;6;1325.0265242628163;;;;;0.0;0.0;170.31617205893855;345.06617205893855;328.1798439880186;78.8435562450053;260.5935562450053;5.31625;60.070457;-2.0;True;00:11:00;2019-01-02 15:02:00;14;1;12;QV6LZ;encs_west;1;1.0;;
818;73;259402000;257560700;BASTO II;;LIPU;;109.0;;;;;;0.0;0.0;7.644322916666669;4.444317708333334;False;False;5;5;2697.064722990541;;;;;0.0;0.0;False;True;6;10;2490.230015480508;851.1;8.0;1609.5;11.0;-0.072498777448994;-8.435409846149156;147.84632547548512;17.84632547548512;2085.990953959294;-144.06930559235244;62.18069440764759;5.33543;59.9807;-2.0;True;00:05:00;2019-01-02 15:00:00;10;3;8;HUXTS;encs_west;4;5.0;;
824;73;304619000;257002270;ALK;ABBE;V2BU3;LETX;132.57;18.46;;;;;0.0;0.0;7.671563464506174;4.910443672839506;False;True;2;5;1640.322617657883;247.4;10.0;305.3;9.0;0.1723544515613237;-4.174036512881261;False;False;5;5;1173.5584348467753;;;;;0.0;0.0;167.05229845853404;340.80229845853404;328.08002072665136;78.84251855996492;260.59251855996484;5.31441;60.078633;-2.0;True;00:09:00;2019-01-02 15:02:00;12;1;10;HUXTS;encs_west;2;2.0;./img/304619000-257002270-HUXTS_-2.0.png;False
831;100;257347000;257070600;HAVTRANS;;LFAL;;85.0;;;;;;0.0;0.0;5.556401909722222;5.015833333333333;False;False;11;11;2377.1177442440767;;;;;0.0;0.0;False;True;11;17;2377.1177442440767;1640.3;13.0;2563.8;0.0;-0.1584372439762931;79.30147194710828;-129.28014833556728;44.46985166443274;2298.480500243588;-139.50796048052928;43.992039519470765;5.20879;59.8963;-2.0;True;00:06:00;2019-01-02 17:57:00;13;8;14;34PZY;encs_west;1;1.0;;
840;23;257106000;257282000;257106000;FAR SAPPHIRE;;LNXW;0.0;93.0;0.0;;0.0;;0.0;0.0;5.411166351010102;4.799167455808081;False;False;6;6;4848.948538600923;;;;;0.0;0.0;False;False;6;6;4848.948538600923;;;;;0.0;0.0;-155.04654160742015;358.1536537050798;4170.609932611767;-130.88230356953;307.49269643047;4.760938;60.789578;-2.0;True;00:11:00;2019-01-02 18:22:00;13;1;12;8IPNH;encs_west;1;1.0;;
857;9;255805908;375219000;AUTO ENERGY;LOLA1;CQIA8;J8XH6;181.0;55.0;;;;;0.0;0.0;8.506132192460319;4.83870597718254;False;True;4;10;2588.7568387162223;984.3;13.0;190.6;15.0;-0.0241011874830396;13.20524951005348;False;False;8;8;1703.3385394571408;;;;;0.0;0.0;164.64510280653417;1.6451028065341864;353.84681713984725;80.4808076904136;262.0804170654136;5.540532;58.91436;-2.0;True;00:14:00;2020-01-02 04:31:00;16;1;15;ARK6V;encs_west;1;1.0;./img/255805908-375219000-ARK6V_-2.0.png;False
859;10;255805908;375219000;AUTO ENERGY;LOLA1;CQIA8;J8XH6;181.0;55.0;;;;;0.0;0.0;8.555318287037037;4.861098090277778;False;False;4;4;834.8729843515137;;;;;0.0;0.0;False;False;4;4;834.8729843515137;;;;;0.0;0.0;176.80557109226524;357.5047898422652;353.078603146666;80.4411523727836;262.0407617477836;5.548271;58.950814;-2.0;True;00:06:00;2020-01-02 04:31:00;8;1;7;7I01E;encs_west;1;1.0;;
886;43;257055930;257152000;HUFTAROY;NORBAR;LEWQ;LCSQ;134.0;82.0;;;;;0.0;0.0;8.234556051587303;4.541866939484128;True;False;8;8;2792.324954227217;;;;;0.0;0.0;True;False;8;8;2792.324954227217;;;;;0.0;0.0;153.95934707100574;2.4593470710056926;1531.1720249534242;-143.46259479842385;59.03740520157616;5.329597;60.024814;-2.0;True;00:14:00;2020-01-02 06:00:00;16;1;15;2VLT5;encs_west;1;1.0;;
893;41;257055990;257072700;FLATOY;SAMBA;LEVN;LMAN;134.0;31.12;;;;;0.0;0.0;8.333374807098766;3.8179190779320975;False;True;9;14;614.8157610211149;330.4;10.0;929.5;0.0;0.0320511895471167;22.2014003851417;False;False;5;5;1551.8047074294025;;;;;0.0;0.0;169.13594249436937;22.01094249436936;398.1269144380975;-95.48893718999642;85.76106281000355;5.32812;60.0632;-2.0;True;00:09:00;2020-01-02 06:06:00;11;1;10;S0AIR;encs_west;1;1.0;./img/257055990-257072700-S0AIR_-2.0.png;False
902;39;258998000;257060130;TJELDEN;;LFNL;;25.7;;;;;;0.0;0.0;12.09815248842593;3.566948784722222;False;False;7;7;2956.204661385962;;;;;0.0;0.0;False;False;7;7;2956.204661385962;;;;;0.0;0.0;-178.80742874029275;11.19257125970723;143.32871310382856;34.87411696669408;219.3741169666941;5.355883;59.758033;-2.0;True;00:12:00;2020-01-02 06:15:00;13;1;13;O9TM4;encs_west;1;1.0;;
950;77;259074000;257597000;HAVILA CLIPPER;STRIL LUNA;LMZT;LEHE;80.4;92.8;;;;;0.0;0.0;5.189458333333333;4.328299768518518;False;False;8;8;2225.0798187930245;;;;;0.0;0.0;False;False;8;8;2225.0798187930245;;;;;0.0;0.0;-155.31309516088444;28.874404839115552;1938.8868404319023;-138.2999626305036;50.13753736949642;5.23282;59.1049;-2.0;True;00:15:00;2020-01-02 07:13:00;18;1;16;M4FUO;encs_west;1;1.0;;
954;28;259074000;257597000;HAVILA CLIPPER;STRIL LUNA;LMZT;LEHE;80.4;92.8;;;;;0.0;0.0;5.191065972222222;4.198348958333332;False;False;6;6;2095.039543779544;;;;;0.0;0.0;False;False;6;6;2095.039543779544;;;;;0.0;0.0;-153.28262665792778;26.092373342072225;1937.338702963424;-128.86838615611725;59.75661384388276;5.249423;59.1043;-2.0;True;00:10:00;2020-01-02 07:16:00;16;1;11;V0ONV;encs_west;1;1.0;;
975;55;257055660;257749600;LOS 134;257749600;LFQI;;18.0;0.0;;0.0;;0.0;0.0;0.0;11.771131944444445;4.517063368055556;False;True;14;18;1721.8254150755242;1396.2;0.0;919.5;0.0;1.0296234837818057;-53.56496786994557;False;True;13;18;2177.025383407372;452.5;15.0;919.5;0.0;0.42690752760313;-15.737961450923908;-121.46646127703303;24.72103872296696;384.03775856027454;35.78042689349401;231.030426893494;5.380067;59.2458;-2.0;True;00:05:00;2020-01-02 07:43:00;18;11;16;KBK5I;encs_west;1;1.0;./img/257055660-257749600-KBK5I_-2.0.png;False
987;6;257055660;257749600;LOS 134;257749600;LFQI;;18.0;0.0;;0.0;;0.0;0.0;0.0;11.771131944444445;4.517063368055556;False;True;8;14;1692.5856669604634;1396.2;0.0;1955.1;0.0;0.781206152480209;-73.72120648437563;False;True;7;13;2145.966155371514;452.5;9.0;1350.3;0.0;0.399294064129255;-19.62485357276281;-121.02365019082865;25.16384980917137;377.4997350992453;35.64380927207762;230.89380927207768;5.380067;59.2458;-2.0;True;00:05:00;2020-01-02 07:43:00;12;5;10;LDSJS;encs_west;1;1.0;./img/257055660-257749600-LDSJS_-2.0.png;False
989;20;257099900;257029700;;VIKINGEN;;LEVF;;84.0;;;;;0.0;0.0;9.733360339506172;6.270684799382717;False;True;2;7;3711.360464843048;4234.0;0.0;3227.4;0.0;-0.8298667740418022;2.5437650669542093;False;False;5;5;3118.3426687905867;;;;;0.0;0.0;171.83735834160169;346.5561083416017;2578.2779698861027;-144.9240500118409;289.2321999881591;5.556593;59.785187;-2.0;True;00:09:00;2020-01-02 07:54:00;11;1;10;9KDQU;encs_west;1;1.0;./img/257099900-257029700-9KDQU_-2.0.png;False
1005;57;257199640;257313940;;ANDREA;;LG4852;;11.0;;;;;0.0;0.0;3.780965711805556;3.1978616898148147;False;False;17;17;1163.8502180263526;;;;;0.0;0.0;False;False;17;17;1163.8502180263526;;;;;0.0;0.0;-160.4155075159412;353.64699248405884;1076.0947541921937;-126.32340397744576;326.8015960225543;4.878836;60.71482;-2.0;True;00:06:00;2020-01-02 09:03:00;10;14;20;ENGE3;encs_west;2;2.0;;
1031;35;259216000;304783000;MASTRAFJORD;SANDNES;LIAT;V2CJ4;129.8;166.7;;;;;0.0;0.0;7.274565972222223;5.607444444444445;False;False;7;7;4110.615768957249;;;;;0.0;0.0;False;False;7;7;4110.615768957249;;;;;0.0;0.0;112.81201530201;13.812015302010035;3801.876564277174;147.97262228363897;48.47262228363896;5.56755;59.15362;-2.0;True;00:05:00;2020-01-02 10:10:00;10;5;10;NLITL;encs_west;2;2.0;;
1091;50;257060530;257029700;;VIKINGEN;;LEVF;14.9;84.0;;;;;0.0;0.0;9.129245370370372;5.861183449074074;True;False;8;8;1899.565008100542;;;;;0.0;0.0;True;False;8;8;1899.565008100542;;;;;0.0;0.0;-174.1371578421663;2.487842157833692;685.4611951088119;111.89416497739788;275.0191649773979;5.575161;59.791743;-2.0;True;00:15:00;2020-01-02 13:38:00;17;1;16;LQSL1;encs_west;1;1.0;;
1102;55;258242000;259301000;FJORDKATT;HAUGLAKS;JWLV;LHNT;27.0;27.0;;;;;0.0;0.0;9.40669704861111;4.098139467592593;True;True;16;15;1487.612224338055;201.1;17.0;1851.9;16.0;0.0;0.0;True;False;15;15;2156.283898284268;;;;;0.0;0.0;-170.47817346651613;0.7718265334838734;194.1847058859153;-127.04775783722432;55.20224216277568;5.29854;60.4101;-2.0;True;00:06:00;2020-01-02 13:44:00;18;12;18;BNHPV;encs_west;2;2.0;./img/258242000-259301000-BNHPV_-2.0.png;True
1113;50;258352500;257055860;ADMIRALEN;SAMNOY;LFJJ;LEWS;34.0;134.0;;;;;0.0;0.0;17.767625000000002;8.742072337962963;True;False;8;8;4778.103356981723;;;;;0.0;0.0;True;False;8;8;4778.103356981723;;;;;0.0;0.0;-159.4567708407203;24.293229159279694;470.9591277382684;126.6376095729044;284.6376095729044;5.37986;59.9778;-2.0;True;00:15:00;2020-01-02 13:49:00;16;1;16;G803T;encs_west;3;3.0;;
1127;45;257175000;257025120;RYGERFONN;FOSNA AMON;JWMA;LH2038;26.0;15.0;;;;;0.0;0.0;15.941749131944444;5.209754774305556;False;True;10;15;2304.3780462415566;1142.6;12.0;1646.0;0.0;-7.108273734513147;25.27493143069439;False;False;9;9;2909.2004967000785;;;;;0.0;0.0;-159.99320890396487;351.6552285960351;661.7165027411685;129.84243531086483;292.79165406086486;5.70546;60.0454;-2.0;True;00:08:00;2020-01-02 13:54:00;13;5;13;MP22L;encs_west;1;1.0;./img/257175000-257025120-MP22L_-2.0.png;False
1129;45;258352500;257055860;ADMIRALEN;SAMNOY;LFJJ;LEWS;34.0;134.0;;;;;0.0;0.0;17.778189484126987;8.86268353174603;True;False;4;4;2372.731573524498;;;;;0.0;0.0;True;True;2;6;3518.949357407693;1688.1;6.0;646.2;7.0;0.5157867587452643;-5.706922639861402;-150.07653178013595;356.92346821986405;464.0077262287802;127.0976484323701;285.0976484323701;5.34156;60.0103;-2.0;True;00:07:00;2020-01-02 13:49:00;8;1;8;MP22L;encs_west;2;2.0;;
1135;15;258352500;257055860;ADMIRALEN;SAMNOY;LFJJ;LEWS;34.0;134.0;;;;;0.0;0.0;17.84157638888889;9.002777777777778;False;True;4;12;1296.934794043247;646.2;5.0;4988.3;0.0;-0.6738563728096576;15.446913257384162;False;False;3;3;1841.8338388682075;;;;;0.0;0.0;-157.21670377730712;356.4336868476929;454.9910109002151;127.71850157822804;285.7185015782281;5.33314;60.0289;-2.0;True;00:05:00;2020-01-02 13:49:00;6;1;6;G0SUT;encs_west;2;2.0;./img/258352500-257055860-G0SUT_-2.0.png;False
1161;88;259330000;212979000;NORDKAPP;FRAKT VIK;LASQ;5BKU4;124.0;90.0;;;;;0.0;0.0;7.79865625;5.524651041666667;False;True;3;9;881.0557757599664;347.9;8.0;619.8;0.0;0.3185210611943909;19.443071282389543;False;True;3;10;881.0557757599664;347.9;8.0;795.1;0.0;-0.534490250366721;38.12009301277659;168.91142452004982;343.7864245200498;430.98316672464335;50.14897056805452;245.0239705680545;5.04974;60.425;-2.0;True;00:05:00;2020-01-02 14:39:00;8;1;6;S688O;encs_west;1;1.0;./img/259330000-212979000-S688O_-2.0.png;False
1164;68;257036360;257036840;TEDNO;HORGEFJORD;LFIQ;LEWF;22.5;116.0;;;;;0.0;0.0;11.92546527777778;7.3155607638888895;False;True;5;10;4958.022089503047;2146.5;16.0;6707.3;0.0;-11.351854190841571;33.654405798112165;False;False;3;3;5609.295222218207;;;;;0.0;0.0;-144.4050598830927;15.188690116907326;4958.022089503047;-146.44111274640127;39.05888725359873;5.20376;60.0935;-2.0;True;00:05:00;2020-01-02 14:46:00;5;1;6;79FF7;encs_west;1;1.0;./img/257036360-257036840-79FF7_-2.0.png;False
1167;68;257056190;257609800;LYSOY;;LEVT;;134.0;14.95;;;;;0.0;0.0;8.723163442460319;2.9434145585317464;False;True;12;19;2104.941882808176;561.2;15.0;974.7;0.0;-0.4032218320845606;27.42996285067657;False;False;10;10;2827.4634940172086;;;;;0.0;0.0;168.3997463690458;318.5247463690458;507.3848736413024;115.67006233178692;293.6700623317869;5.36878;60.102386;-2.0;True;00:14:00;2020-01-02 14:58:00;17;3;17;79FF7;encs_west;2;2.0;./img/257056190-257609800-79FF7_-2.0.png;True
1173;68;257884900;257382000;RYGERKATT;KOMMANDOEREN;LMES;LFDW;19.0;88.0;;;;;0.0;0.0;10.690798611111113;5.76740451388889;False;True;2;5;4459.889869716532;707.0;14.0;192.4;13.0;0.1679383664689826;-1.4936856549419637;False;False;6;6;3059.5699632464684;;;;;0.0;0.0;129.38223519795596;328.132235197956;640.8652432454079;53.29294334959685;250.66794334959687;5.48396;60.1482;-2.0;True;00:10:00;2020-01-02 14:55:00;14;1;11;79FF7;encs_west;1;1.0;./img/257884900-257382000-79FF7_-2.0.png;False
1175;68;257953800;257609800;NOTHAV;;LEGP;;34.11;14.95;;;;;0.0;0.0;4.074560763888889;2.9323333333333337;False;True;8;14;4184.571801271912;4126.4;13.0;4507.3;0.0;0.4180176592882674;19.105986559086087;False;False;7;7;4275.603107165128;;;;;0.0;0.0;-119.16801821296195;331.70698178703805;4064.7131128777096;-132.30079677237683;304.1367032276232;5.335176;60.13156;-2.0;True;00:05:00;2020-01-02 14:51:00;10;5;10;79FF7;encs_west;2;2.0;./img/257953800-257609800-79FF7_-2.0.png;False
1183;10;258352500;209318000;ADMIRALEN;SIGYN W;LFJJ;5BAP5;34.0;137.95;;;;;0.0;0.0;15.572905618686868;5.887977430555555;False;True;2;7;9110.65923904522;7906.5;7.0;4183.9;15.0;-0.2413223313935777;24.657071300406045;False;True;11;16;5289.014624672539;4844.0;13.0;4598.6;0.0;-0.2162882895605307;-11.205334705477735;157.85156612153244;30.851566121532404;4356.167435946419;-119.7386139069788;78.13638609302123;5.17578;60.260867;-2.0;True;00:11:00;2020-01-02 15:54:00;15;1;12;LL27X;encs_west;1;1.0;./img/258352500-209318000-LL27X_-2.0.png;False
1261;89;258999000;258773000;FJORDBRIS;LIGRUNN;LFNF;LDAK;36.7;64.0;;;;;0.0;0.0;16.731501736111113;5.581521267361111;True;False;5;5;2679.4232886947893;;;;;0.0;0.0;True;False;5;5;2679.4232886947893;;;;;0.0;0.0;137.22322217168718;357.87361279668715;162.96640758143724;51.596638938400886;235.59663893840093;5.18264;60.1913;-2.0;True;00:08:00;2020-01-02 17:22:00;9;1;9;SSLRH;encs_west;1;1.0;;
1265;38;257175000;257191000;RYGERFONN;SEISUND;JWMA;LFCG;26.0;56.0;;;;;0.0;0.0;15.318789062500002;4.281343315972222;False;True;9;15;3792.777706378263;2926.3;11.0;866.2;0.0;1.2101302623164152;-68.53525502645336;False;False;11;11;2624.568659799173;;;;;0.0;0.0;-116.82042420851528;341.67957579148475;189.70094886426344;-33.876395844908906;149.12360415509107;5.78393;59.974133;-2.0;True;00:08:00;2020-01-02 18:02:00;15;7;15;LJEDX;encs_west;1;1.0;./img/257175000-257191000-LJEDX_-2.0.png;False
1266;38;257175000;257262000;RYGERFONN;RONJA SUND;JWMA;LDBG;26.0;70.0;;;;;0.0;0.0;14.734010416666669;4.126005208333334;False;False;3;3;2711.0241607186017;;;;;0.0;0.0;False;False;3;3;2711.0241607186017;;;;;0.0;0.0;160.33377539608824;4.083775396088206;1204.6956171581296;-147.39103131840506;68.48396868159493;5.875239;59.984373;-2.0;True;00:05:00;2020-01-02 17:53:00;6;1;6;LJEDX;encs_west;1;2.0;;
1270;76;257000020;257191000;SCALLOP FIGHTER;SEISUND;LG9839;LFCG;15.0;56.0;;;;;0.0;0.0;10.07611315359477;4.460725081699346;True;True;14;19;1706.6776204075595;143.6;18.0;706.2;0.0;-0.3762923129944049;21.377149181652715;True;True;7;12;4139.11632356473;1343.7;16.0;1067.4;17.0;0.0962273864596365;10.999113542211491;173.46727312135204;344.967273121352;351.52493510417906;147.22782876352005;313.97782876352005;5.706567;60.053333;-2.0;True;00:17:00;2020-01-02 18:34:00;18;1;18;T9ZQS;encs_west;1;1.0;./img/257000020-257191000-T9ZQS_-2.0.png;False
1288;75;257000020;257191000;SCALLOP FIGHTER;SEISUND;LG9839;LFCG;15.0;56.0;;;;;0.0;0.0;10.07611315359477;4.460725081699346;True;False;9;9;3402.742019313248;;;;;0.0;0.0;True;False;9;9;3402.742019313248;;;;;0.0;0.0;173.46727312135212;344.9672731213521;351.52493510417906;147.22782876352005;313.97782876352005;5.714394;60.026143;-2.0;True;00:17:00;2020-01-02 18:34:00;18;1;18;K130U;encs_west;1;1.0;;
1310;78;257000020;257191000;SCALLOP FIGHTER;SEISUND;LG9839;LFCG;15.0;56.0;;;;;0.0;0.0;10.322827932098766;4.44154899691358;True;True;6;15;1706.6776204075595;143.6;10.0;2380.3;0.0;-0.6347979261483534;82.40577753103734;True;False;5;5;2040.2977282739805;;;;;0.0;0.0;-178.50602640309677;357.9939735969033;351.52493510417906;147.22782876352005;313.97782876352005;5.706567;60.053333;-2.0;True;00:09:00;2020-01-02 18:34:00;10;1;10;EFY6Q;encs_west;1;1.0;./img/257000020-257191000-EFY6Q_-2.0.png;False
1317;78;257694800;246403000;;PEAK BELFAST;;PBPZ;;89.95;;;;;0.0;0.0;13.277757523148146;3.7680711082175935;True;False;7;7;7103.533758630279;;;;;0.0;0.0;True;False;7;7;7103.533758630279;;;;;0.0;0.0;-169.79372624504668;28.081273754953312;3168.8309216491816;60.801766123458975;269.801766123459;5.815608;59.006564;-2.0;True;00:12:00;2020-01-02 18:40:00;16;1;13;EFY6Q;encs_west;2;2.0;;
1324;78;258901000;258255000;AQUA JUNIOR;;LEHA;;69.0;57.07;;;;;0.0;0.0;5.771423611111112;4.495177556818181;False;False;6;6;722.7717758739773;;;;;0.0;0.0;False;False;6;6;722.7717758739773;;;;;0.0;0.0;176.1104476254983;353.1104476254983;290.70156518326326;92.92850871639207;271.6785087163921;5.245058;60.174091;-2.0;True;00:11:00;2020-01-02 18:39:00;15;1;12;EFY6Q;encs_west;1;1.0;;
1351;37;314292000;257228000;SAMSKIP COMMANDER;SCAN TRANS;8PVT;JXGT;101.0;52.0;;;;;0.0;0.0;6.604180555555556;4.547206597222222;False;True;15;20;4618.77580858824;4334.2;17.0;5558.3;0.0;0.0751945216980347;27.207492609347955;False;False;13;13;4929.897229151942;;;;;0.0;0.0;-112.74148899316113;339.8522610068389;4532.544735576256;-139.01658733296006;308.82716266704;5.157892;60.17714;-2.0;True;00:05:00;2021-01-02 07:32:00;16;11;16;9X37E;encs_west;1;1.0;./img/314292000-257228000-9X37E_-2.0.png;False
1364;18;257054580;257577000;HORDAFOR VII;KL SALTFJORD;LFIL;LGFT;74.3;95.21;;;;;0.0;0.0;5.727213541666667;4.788419415509259;True;True;4;9;621.7390208117873;149.9;20.0;416.2;0.0;0.2913558032458145;10.347733453172657;True;True;6;11;576.6246959678364;122.4;20.0;192.9;13.0;-0.0237816219323443;-10.789383296558766;178.84503777986092;6.970037779860958;209.3476773217224;102.37624347396536;280.25124347396536;4.73279;61.048918;-2.0;True;00:12:00;2021-01-02 13:23:00;14;1;13;8PEY6;encs_west;1;1.0;./img/257054580-257577000-8PEY6_-2.0.png;False
1374;46;258053000;257033570;RONJA TIND;;LHIX;;70.0;;;;;;0.0;0.0;5.846446759259259;3.6014460358796296;False;False;16;16;1934.3148502764484;;;;;0.0;0.0;False;False;16;16;1934.3148502764484;;;;;0.0;0.0;-149.0665502178814;33.43344978211863;1633.4365766689657;-125.21760664500968;45.532393354990326;5.372883;59.975279;-2.0;True;00:06:00;2021-01-02 14:30:00;19;13;19;8720A;encs_west;1;1.0;;
1375;46;258206500;257080050;HORDALAND ROEDE KORS;BARENTS OCEAN;LG2850;LFYQ;11.0;76.45;;;;;0.0;0.0;13.135749421296296;3.909576822916667;False;False;8;8;4793.375579901911;;;;;0.0;0.0;False;False;8;8;4793.375579901911;;;;;0.0;0.0;116.91668613717049;35.791686137170494;3037.1797921756265;96.3833218579468;271.63332185794684;5.203017;60.315067;-2.0;True;00:06:00;2021-01-02 14:24:00;13;5;11;8720A;encs_west;1;1.0;;
1394;97;257028000;259859000;AMB RYGERVAKT;COMABAR;LCWQ;LNJR;21.0;63.14;;;;;0.0;0.0;14.420520833333333;5.238893229166667;False;True;6;11;2135.9320799126785;455.6;9.0;1362.2;0.0;1.037269549802854;-10.912952625884907;False;False;7;7;1567.9510100765208;;;;;0.0;0.0;-164.5571956391276;358.8431949858724;193.0612338093768;-40.84919625186426;145.74943656063573;5.191794;60.120091;-2.0;True;00:06:00;2019-01-03 09:13:00;10;4;10;SKGE4;encs_west;1;1.0;./img/257028000-259859000-SKGE4_-2.0.png;False
1397;97;257144700;257154320;BOKNAFJORD;;3YQA;;130.0;16.15;;;;;0.0;0.0;7.747096974206349;3.616039186507936;False;False;4;4;4711.483308895402;;;;;0.0;0.0;False;False;4;4;4711.483308895402;;;;;0.0;0.0;-139.64449450387409;35.168005496125915;2104.1175941472534;-98.6898503815957;100.18514961840434;5.4935;59.163329;-2.0;True;00:07:00;2019-01-03 09:20:00;17;1;8;SKGE4;encs_west;1;2.0;;
1399;97;257299000;257029440;LOS 131;;LEYF;;18.0;12.12;;;;;0.0;0.0;13.99449652777778;3.2924444444444445;False;True;3;9;4673.652709605193;1041.3;9.0;3672.4;0.0;-13.198033191257066;-107.4682010733613;False;True;2;6;5339.708984579598;1078.1;9.0;2171.6;20.0;-0.2254767173950957;36.3850616603071;165.0192905072572;340.0192905072572;3150.0068650718927;128.74722839818762;69.7472283981876;5.451605;59.23045;-2.0;True;00:05:00;2019-01-03 09:09:00;6;1;6;SKGE4;encs_west;1;1.0;./img/257299000-257029440-SKGE4_-2.0.png;False
1406;97;259299000;257785500;TRANEN;FOX CHALLENGER;JWNP;LEJJ;33.0;30.0;;;;;0.0;0.0;13.624739583333332;2.7575026041666666;False;False;11;11;2797.4818909154656;;;;;0.0;0.0;False;False;11;11;2797.4818909154656;;;;;0.0;0.0;130.66238201797592;345.3498820179759;809.5144347076081;79.25815150648155;276.4456515064815;5.532253;59.782031;-2.0;True;00:05:00;2019-01-03 09:17:00;14;9;14;SKGE4;encs_west;1;1.0;;
1411;8;259299000;257785500;TRANEN;FOX CHALLENGER;JWNP;LEJJ;33.0;30.0;;;;;0.0;0.0;13.624739583333332;2.7575026041666666;False;False;7;7;2679.485939504068;;;;;0.0;0.0;False;False;7;7;2679.485939504068;;;;;0.0;0.0;130.79597647789947;345.4834764778995;794.129240111456;78.00770282481628;275.1952028248163;5.532253;59.782031;-2.0;True;00:05:00;2019-01-03 09:17:00;10;5;10;FG6F8;encs_west;1;1.0;;
1420;11;219347000;258271000;STAVANGERFJORD;BERGENSFJORD;OYOW2;LNZZ;170.0;130.0;;;;;0.0;0.0;11.409413194444443;9.351635416666667;False;False;3;3;1386.5909418426193;;;;;0.0;0.0;False;False;3;3;1386.5909418426193;;;;;0.0;0.0;177.3444881895076;343.9929256895076;1314.799121539103;149.70884207524242;315.20884207524244;5.327841;60.04;-2.0;True;00:05:00;2019-01-03 09:56:00;5;1;6;T782N;encs_west;2;2.0;;
1468;51;259955000;257040600;RYGERTROLL;NYSAND;3YWR;LJIE;25.1;48.23;;;;;0.0;0.0;14.397554563492063;4.784448164682539;False;False;4;4;3185.430338274564;;;;;0.0;0.0;False;False;4;4;3185.430338274564;;;;;0.0;0.0;125.61351254411976;10.113512544119704;695.5582002967119;83.0579412711676;263.9329412711676;5.257063;60.5056;-2.0;True;00:07:00;2019-01-03 11:49:00;9;1;8;05C6D;encs_west;1;1.0;;
1492;59;255805917;257002270;OCEAN CARRIER;ABBE;CQIB9;LETX;107.0;18.46;;;;;0.0;0.0;6.263260633680556;2.707364366319445;False;False;5;5;1311.612145414948;;;;;0.0;0.0;False;False;5;5;1311.612145414948;;;;;0.0;0.0;129.7444462756869;13.838196275686938;294.5142611148141;41.55471848979345;238.80471848979343;5.180912;60.20272;-2.0;True;00:08:00;2019-01-03 15:19:00;11;1;9;4B8CU;encs_west;2;2.0;;
1502;59;258352500;257461000;ADMIRALEN;HAVILA JUPITER;LFJJ;LAZA;34.0;92.0;;;;;0.0;0.0;16.41499782986111;5.556401909722222;True;True;14;18;1450.1090614157272;89.1;15.0;2103.7;0.0;-0.6851919350155669;43.319173663672096;True;True;14;19;1450.1090614157272;89.1;15.0;2785.4;0.0;-0.6208488658366575;40.9715779882512;158.36859448112742;30.868594481127417;204.79113750355995;102.30404193073342;283.05404193073343;5.20117;60.3924;-2.0;True;00:08:00;2019-01-03 15:24:00;16;8;16;4B8CU;encs_west;6;6.0;./img/258352500-257461000-4B8CU_-2.0.png;False
1509;88;219347000;257171220;STAVANGERFJORD;;OYOW2;;170.0;12.24;;;;;0.0;0.0;11.4303125;3.261497395833333;False;False;6;6;3585.043165709439;;;;;0.0;0.0;False;False;6;6;3585.043165709439;;;;;0.0;0.0;-170.18683418766213;17.93816581233784;1289.222063881936;-77.58250957798829;98.41749042201177;5.287587;59.624026;-2.0;True;00:10:00;2019-01-03 15:29:00;13;1;11;SDZK4;encs_west;2;2.0;;
1517;88;257461000;257356400;HAVILA JUPITER;;LAZA;;92.0;26.62;;;;;0.0;0.0;5.16534375;2.818994791666667;False;True;11;18;296.5766342785717;71.2;12.0;933.0;0.0;-0.0826492862976633;12.42312247600242;False;False;9;9;593.4883402393009;;;;;0.0;0.0;119.63383894330372;3.758838943303671;160.51180641934127;69.30311889559161;259.42811889559164;5.165731;60.373945;-2.0;True;00:05:00;2019-01-03 15:29:00;13;7;12;SDZK4;encs_west;1;1.0;./img/257461000-257356400-SDZK4_-2.0.png;False
1522;88;258104000;257002270;NORDKABEL;ABBE;LGRY;LETX;44.0;18.46;;;;;0.0;0.0;5.386535947712419;2.8686897467320263;True;True;15;19;634.7496278061137;174.6;0.0;589.7;0.0;0.0080835780075401;-19.38245701188944;True;False;9;9;1558.5605923415408;;;;;0.0;0.0;-173.66215595385063;0.3378440461493683;235.9515628259277;-121.37080544982456;65.3791945501754;5.16498;60.2338;-2.0;True;00:17:00;2019-01-03 15:34:00;18;1;18;SDZK4;encs_west;1;1.0;./img/258104000-257002270-SDZK4_-2.0.png;True
1535;52;258104000;257002270;NORDKABEL;ABBE;LGRY;LETX;44.0;18.46;;;;;0.0;0.0;5.463560763888889;2.9423810763888887;False;True;3;9;627.6792572644089;174.6;0.0;992.0;0.0;0.0571312245952784;-35.02864733216412;False;False;3;3;627.6792572644089;;;;;0.0;0.0;-164.41219123159013;11.587808768409875;228.5226028208174;-122.22735829007684;64.52264170992315;5.16498;60.2338;-2.0;True;00:05:00;2019-01-03 15:34:00;6;1;6;SFXG5;encs_west;1;1.0;./img/258104000-257002270-SFXG5_-2.0.png;False
1539;52;258352500;259827000;ADMIRALEN;FAR SIGMA;LFJJ;LGPE;34.0;87.4;;;;;0.0;0.0;15.184149305555556;4.961862599206349;True;True;12;10;4219.861639911909;2000.7;16.0;4996.8;0.0;0.0;0.0;True;False;14;14;2774.0341310084887;;;;;0.0;0.0;145.989390355599;27.48939035559899;293.3637332732166;31.964335658616047;217.839335658616;5.19429;60.2847;-2.0;True;00:07:00;2019-01-03 15:46:00;18;11;18;SFXG5;encs_west;2;2.0;./img/258352500-259827000-SFXG5_-2.0.png;False
1584;87;258031000;258407000;AQUA FJORD;SILVER FIRDA;LMPG;LGNY3;60.0;63.26;;;;;0.0;0.0;5.805719907407408;4.685195601851851;True;False;8;8;685.1011385189701;;;;;0.0;0.0;True;True;2;5;1035.5005408014097;948.4;4.0;468.6;13.0;-0.0519913602163866;2.2166449938872463;-164.7230846118257;350.0269153881743;163.24267211731248;-89.6149339640115;90.1350660359885;5.2297;59.440667;-2.0;True;00:15:00;2019-01-03 18:59:00;18;1;16;HD8XM;encs_west;1;1.0;;
1587;87;258593000;258844000;FJORDDROTT;KARLSOYFJORD;JWMQ;LDGY;27.0;123.11;;;;;0.0;0.0;14.951041666666669;7.105763888888889;False;False;11;11;3691.535004574652;;;;;0.0;0.0;False;False;11;11;3691.535004574652;;;;;0.0;0.0;174.8198946367813;13.507394636781315;2045.5431772514576;126.62646810762048;293.12646810762044;5.80573;58.994367;-2.0;True;00:08:00;2019-01-03 18:57:00;16;7;15;HD8XM;encs_west;1;1.0;;
1589;87;259344000;257256000;BOMLO;RINGASUND;LMWY;LCZF;116.625;28.38;;;;;0.0;0.0;9.018854166666667;3.9357009548611113;False;True;2;8;3218.554016946119;590.9;11.0;1818.9;9.0;-0.1193349901025841;9.111547630222816;False;False;4;4;2664.265243927479;;;;;0.0;0.0;155.09600824119715;343.3460082411971;1910.896386516022;135.5123942003528;290.0123942003528;5.337147;60.06325;-2.0;True;00:06:00;2019-01-03 18:50:00;9;1;7;HD8XM;encs_west;1;2.0;./img/259344000-257256000-HD8XM_-2.0.png;False
1601;6;257083200;257437000;KV TOR;HARVEST;LBHT;LDKY;47.2;67.0;;;;;0.0;0.0;6.944999999999999;5.718027033730159;False;True;7;12;755.5190268947566;628.5;11.0;616.2;13.0;0.1036148760719219;-9.152655958777808;False;True;4;10;925.6670945863858;420.0;14.0;715.0;0.0;-0.0587772539443047;-8.070899800088986;177.48188540300802;351.981885403008;594.325508454751;116.73940939086624;294.23940939086623;4.93043;60.5492;-2.0;True;00:07:00;2019-01-03 22:05:00;14;2;9;CW2OC;encs_west;1;1.0;./img/257083200-257437000-CW2OC_-2.0.png;False
1621;31;257130000;258310000;HANNAH KRISTINA;BERGEN STAR;LEUK;LNVH;101.26;90.0;;;;;0.0;0.0;7.258891493055555;5.484460069444445;False;True;2;7;1333.9877435718838;1202.3;4.0;277.9;14.0;-0.0286664768766415;12.891430618258156;False;False;6;6;1016.410945434966;;;;;0.0;0.0;-172.8257821127931;23.92421788720692;486.7627758980754;-110.11447294534126;76.8855270546587;5.049571;60.823086;-2.0;True;00:10:00;2020-01-03 02:26:00;13;1;11;IRXUW;encs_west;1;1.0;./img/257130000-258310000-IRXUW_-2.0.png;False
1672;66;257492000;257083200;KV BERGEN;KV TOR;LAQM;LBHT;93.2;47.2;;;;;0.0;0.0;4.996184413580248;4.183880208333334;False;True;8;14;2764.830591555278;2750.0;0.0;4190.7;0.0;-1.8229142337829376;-58.71498597996042;False;True;7;13;2793.385589208904;2729.0;8.0;3877.9;0.0;0.319625162648455;-31.14003527738879;168.97020573481032;8.673330734810335;2764.830591555278;149.05137511971355;37.19981261971357;5.20226;60.316333;-2.0;True;00:09:00;2020-01-03 05:38:00;8;1;10;HD93Z;encs_west;1;1.0;./img/257492000-257083200-HD93Z_-2.0.png;False
1673;66;258044000;257013000;HORDAFOR III;STRIL POLAR;LLVC;3YUW;50.0;93.5;;;;;0.0;0.0;5.483467116013072;4.807785947712418;True;False;9;9;2313.213489931263;;;;;0.0;0.0;True;True;14;19;2110.6851067840453;1852.1;20.0;2309.8;0.0;-0.1961311235582519;38.323958438995;151.98431534755676;34.98431534755678;1985.2330669218784;147.44392949963782;59.78767949963779;5.16957;60.35105;-2.0;True;00:17:00;2020-01-03 05:48:00;18;1;18;HD93Z;encs_west;2;2.0;;
1688;64;258044000;257013000;HORDAFOR III;STRIL POLAR;LLVC;3YUW;50.0;93.5;;;;;0.0;0.0;5.466474609375001;4.770668402777778;False;True;6;11;2082.7669288713146;1521.7;19.0;2622.0;0.0;0.1714430225759073;-39.14074804761014;False;True;5;11;2110.6750128809445;1575.9;19.0;2622.0;0.0;-0.1551359415112756;45.85095853138389;177.17129726203044;0.1712972620304207;1985.361440644992;147.44564180008885;59.78939180008888;5.167717;60.368691;-2.0;True;00:08:00;2020-01-03 05:48:00;9;1;9;BS79A;encs_west;2;2.0;./img/258044000-257013000-BS79A_-2.0.png;False
1697;49;257056190;314180000;LYSOY;WILSON CORK;LEVT;8PRO;134.0;100.0;;;;;0.0;0.0;8.57943287037037;5.819652777777779;False;True;9;15;497.0206132546237;308.7;10.0;1347.9;0.0;-0.4379183355004734;-14.821822987454851;False;False;5;5;1031.3222047449603;;;;;0.0;0.0;157.93708184877974;0.9370818487797962;343.11888610218466;-109.02384221147592;76.35115778852409;5.33336;60.015;-2.0;True;00:09:00;2020-01-03 05:56:00;11;1;10;ALA1B;encs_west;1;1.0;./img/257056190-314180000-ALA1B_-2.0.png;False
1740;64;257036360;314180000;TEDNO;WILSON CORK;LFIQ;8PRO;22.5;100.0;;;;;0.0;0.0;10.682760416666667;5.538985821759259;False;False;4;4;1304.3485768765952;;;;;0.0;0.0;False;False;4;4;1304.3485768765952;;;;;0.0;0.0;-158.24977877701173;12.000221222988332;289.64132992375096;-47.24646835521558;126.75353164478445;5.5023;59.7538;-2.0;True;00:06:00;2020-01-03 07:33:00;8;1;7;TXI3X;encs_west;2;2.0;;
1757;62;258998000;257698500;TJELDEN;;LFNL;;25.7;14.95;;;;;0.0;0.0;10.843524305555556;4.105105902777778;False;True;11;18;4415.880607534583;4090.3;13.0;4206.0;0.0;-1.1133070483774157;-18.406018309277844;False;True;13;18;3686.427627120872;3080.6;15.0;4206.0;0.0;-0.1254392786808149;2.494636388967241;171.84611561105905;34.97111561105903;3279.8287546760675;-140.54169746197337;72.33330253802666;5.183696;60.08418;-2.0;True;00:05:00;2020-01-03 07:45:00;15;9;14;SNABA;encs_west;1;1.0;./img/258998000-257698500-SNABA_-2.0.png;False
1761;34;257055930;258310000;HUFTAROY;BERGEN STAR;LEWQ;LNVH;134.0;90.0;;;;;0.0;0.0;8.718175455729167;5.928168402777779;True;False;9;9;1827.214809484652;;;;;0.0;0.0;True;False;9;9;1827.214809484652;;;;;0.0;0.0;133.57264624613094;354.197646246131;426.7701137614951;-96.08064764894552;82.66935235105447;5.33196;60.0554;-2.0;True;00:16:00;2020-01-03 07:55:00;19;1;17;HTFMW;encs_west;2;2.0;;
1766;34;258998000;257698500;TJELDEN;;LFNL;;25.7;14.95;;;;;0.0;0.0;10.843524305555556;4.105105902777778;False;False;5;5;4416.053724763774;;;;;0.0;0.0;False;True;6;11;4063.343928342775;3596.4;8.0;3831.3;0.0;-0.1088517506326334;-1.5395392367300869;171.68627373428623;34.8112737342862;3282.0493597750783;-140.3803832080835;72.49461679191648;5.183696;60.08418;-2.0;True;00:05:00;2020-01-03 07:45:00;9;3;8;HTFMW;encs_west;1;1.0;;
1778;26;257042930;257056190;HUSAVIK;LYSOY;LETP;LEVT;66.4;134.0;;;;;0.0;0.0;6.944999999999999;1.4916951109871035;False;True;13;17;1554.2798525362157;475.7;16.0;185.7;0.0;-2.506286216953708;-14.397300989670528;False;True;14;19;1149.5968336769088;339.4;16.0;780.5;0.0;3.283364454726721;-121.26880678403812;-146.79080168927757;12.459198310722456;61.96983136978858;-60.70006057502838;315.7999394249716;5.32334;59.982;-2.0;True;00:07:00;2020-01-03 09:32:00;17;10;17;0GYD8;encs_west;1;1.0;./img/257042930-257056190-0GYD8_-2.0.png;False
1782;75;257042930;257056190;HUSAVIK;LYSOY;LETP;LEVT;66.4;134.0;;;;;0.0;0.0;6.944999999999999;1.4916951109871035;False;True;13;17;1556.7352408164986;475.7;16.0;185.7;0.0;-2.506286216953708;-14.397300989670528;False;True;14;19;1150.7720017449178;339.4;16.0;780.5;0.0;3.5032403578833247;-118.12190277177818;-146.53116358424614;12.718836415753811;62.33466130492623;-61.01525159731628;315.4847484026837;5.32334;59.982;-2.0;True;00:07:00;2020-01-03 09:32:00;17;10;17;KMPKI;encs_west;1;1.0;./img/257042930-257056190-KMPKI_-2.0.png;False
1815;42;258352500;257273900;ADMIRALEN;MOWI STAR;LFJJ;LHOI;34.0;38.7;;;;;0.0;0.0;16.668;4.763434027777778;False;True;8;5;2850.377422377611;233.2;11.0;3828.9;0.0;0.0;0.0;False;True;10;15;1339.5215414467905;827.4;0.0;3134.4;0.0;0.1804945386994614;-16.944460540963693;161.79308212791258;348.2930821279126;112.85902710904458;-41.33617452901007;141.6638254709899;5.199435;60.30625;-2.0;True;00:05:00;2020-01-03 14:34:00;12;7;12;9KFLC;encs_west;1;1.0;./img/258352500-257273900-9KFLC_-2.0.png;False
1822;65;257060530;257201800;;;;;14.9;;;;;;0.0;0.0;9.166221064814817;3.755846354166667;True;False;6;6;3796.419905647951;;;;;0.0;0.0;True;False;6;6;3796.419905647951;;;;;0.0;0.0;121.0328855495428;327.4078855495428;1136.978948793692;59.157053979800665;259.2820539798007;5.733814;59.904435;-2.0;True;00:06:00;2020-01-03 16:27:00;16;3;9;CAK22;encs_west;1;1.0;;
1836;67;219348000;258221000;BERGENSFJORD;NYFJELL;OYPJ2;JWPR;170.0;67.01;;;;;0.0;0.0;10.721343750000004;4.188703125000001;False;True;3;8;1246.6614496325822;321.9;5.0;1253.9;0.0;-0.125753069023089;-4.457778471515166;False;False;3;3;1246.6614496325822;;;;;0.0;0.0;172.0130594268144;355.76305942681444;393.27153469327794;93.92380863695728;278.2988086369573;5.473457;59.727078;-2.0;True;00:05:00;2020-01-03 17:02:00;6;1;6;VK8CN;encs_west;1;1.0;./img/219348000-258221000-VK8CN_-2.0.png;True
1839;67;231815000;257080050;ICE CRYSTAL;BARENTS OCEAN;OZ2179;LFYQ;105.0;76.45;;;;;0.0;0.0;6.088932291666668;3.994264942956349;False;True;8;13;917.990332193101;514.6;13.0;130.6;15.0;0.1181811571842486;-17.825883963318695;False;True;2;6;1674.985528295691;499.3;13.0;501.3;13.0;-0.045008350492818;-9.187349853225143;-176.29601259644983;5.203987403550173;222.11298926447137;101.88417829765652;269.88417829765655;5.37516;59.975683;-2.0;True;00:14:00;2020-01-03 17:12:00;16;1;15;VK8CN;encs_west;1;1.0;./img/231815000-257080050-VK8CN_-2.0.png;False
1850;67;257961900;257498000;RYGERFJORD;NORMAND SYGNA;LMSJ;LGQJ;20.0;95.0;;;;;0.0;0.0;10.192430555555555;4.31421378968254;False;True;6;10;1142.339078382592;98.0;8.0;1339.5;0.0;1.4902647694725282;-5.566662143365965;False;False;4;4;1821.6013285019287;;;;;0.0;0.0;132.9200075322794;355.7325075322794;327.7450838685453;32.24817741028074;220.3731774102808;5.679327;59.00305;-2.0;True;00:07:00;2020-01-03 17:05:00;9;1;8;VK8CN;encs_west;1;1.0;./img/257961900-257498000-VK8CN_-2.0.png;False
1859;9;258226000;212530000;VOLLSOY;FRAKT FJORD;LLLZ;5BDT4;88.16;90.0;;;;;0.0;0.0;6.194232638888889;5.617894097222222;False;False;3;3;3836.4559609097537;;;;;0.0;0.0;False;False;3;3;3836.4559609097537;;;;;0.0;0.0;-114.82937816193498;344.795621838065;3668.542327682753;-141.0541140756994;318.13338592430057;5.485292;59.0456;-2.0;True;00:05:00;2020-01-03 21:19:00;5;1;6;ERK66;encs_west;1;1.0;;
1860;9;219348000;212530000;BERGENSFJORD;FRAKT FJORD;OYPJ2;5BDT4;170.0;90.0;;;;;0.0;0.0;8.579767795138888;4.816385633680556;False;False;5;5;3274.7562046662347;;;;;0.0;0.0;False;False;5;5;3274.7562046662347;;;;;0.0;0.0;147.5925696314334;38.21756963143338;2568.9751205490493;146.53509367652632;302.6600936765263;5.37235;58.8088;-2.0;True;00:08:00;2020-01-03 23:19:00;10;1;9;8W7GG;encs_west;1;1.0;;
1862;10;257130000;257083200;HANNAH KRISTINA;KV TOR;LEUK;LBHT;101.26;47.2;;;;;0.0;0.0;7.82633060515873;1.745508277529762;True;False;8;8;2712.1167415876525;;;;;0.0;0.0;True;False;8;8;2712.1167415876525;;;;;0.0;0.0;-152.79817052701878;337.0768294729812;405.5998643983978;75.038388292801;248.163388292801;5.553099;59.774243;-2.0;True;00:14:00;2020-01-04 00:11:00;16;1;15;54DYD;encs_west;2;2.0;;
1863;10;257130000;257477000;HANNAH KRISTINA;VESTBORG;LEUK;LAIQ8;101.26;87.9;;;;;0.0;0.0;7.743381842320262;3.026261999591503;True;False;9;9;2499.045917945486;;;;;0.0;0.0;True;False;9;9;2499.045917945486;;;;;0.0;0.0;-154.38877406393948;343.2362259360606;228.2108674011828;130.24842412316693;296.12342412316696;5.54842;59.770833;-2.0;True;00:17:00;2020-01-04 00:13:00;18;1;18;54DYD;encs_west;2;2.0;;
1867;44;257063530;259405000;ROSEDOKTOREN;EIDSVAAG MARIN;LFOF;JWLR;21.752;58.6;;;;;0.0;0.0;13.364302083333332;5.535100694444444;False;False;3;3;2196.1546507475223;;;;;0.0;0.0;False;False;3;3;2196.1546507475223;;;;;0.0;0.0;165.1469163345895;3.521916334589496;940.1197849210466;-117.7636726222786;91.7363273777214;5.5884;59.7994;-2.0;True;00:05:00;2021-01-03 05:36:00;7;1;6;5646;encs_west;1;1.0;;
1896;65;258352500;257042930;ADMIRALEN;HUSAVIK;LFJJ;LETP;34.0;66.4;;;;;0.0;0.0;17.53290972222222;6.019803819444445;False;False;3;3;8102.867532546726;;;;;0.0;0.0;False;True;4;9;7441.562909093761;2671.3;12.0;3252.2;10.0;-1.586833973116887;30.460666801143685;126.29455107125897;1.3883010712589685;4002.5659020183534;31.39827403851331;276.39827403851336;5.2251;59.94345;-2.0;True;00:05:00;2021-01-03 10:08:00;9;1;6;TN2EA;encs_west;1;1.0;;
1904;58;257055910;257071070;FAEROY;;LEWW;;134.0;;;;;;0.0;0.0;8.185393880208334;2.5270073784722222;False;True;2;7;2638.0913346584493;909.5;7.0;480.9;8.0;0.0017761807718965;8.465313087067715;False;False;5;5;1602.9171469542623;;;;;0.0;0.0;149.18828960314357;3.688289603143548;490.2497424782621;-137.46130233346568;66.16369766653433;5.33177;60.049286;-2.0;True;00:08:00;2021-01-03 11:15:00;9;1;9;DZQQM;encs_west;2;2.0;./img/257055910-257071070-DZQQM_-2.0.png;False
1912;56;257055990;314298000;FLATOY;LEIRO;LEVN;8PVZ;134.0;98.0;;;;;0.0;0.0;8.661601080246916;4.852836612654321;False;True;2;8;3427.959500927632;1249.7;9.0;312.5;13.0;-0.0702688251330894;20.57019657947701;False;False;5;5;2446.5631117958114;;;;;0.0;0.0;116.71056043969612;346.58556043969605;693.850848525826;62.93647544747889;251.93647544747893;5.361557;60.096629;-2.0;True;00:09:00;2021-01-03 11:27:00;14;1;10;WIXVI;encs_west;1;1.0;./img/257055990-314298000-WIXVI_-2.0.png;False
1917;56;258150500;258312000;RESCUE B KYRKJEBOE;TENAX;LF4119;LDYI;12.75;38.27;;;;;0.0;0.0;12.56209027777778;4.970015625;True;True;2;5;4421.326548672912;480.9;10.0;2655.8;7.0;-0.0154865413761431;-2.631330474442686;True;True;2;11;4421.326548672912;480.9;10.0;356.8;12.0;-0.0617324015131619;31.47397864182505;164.85571249347086;359.3557124934709;376.3113604450432;-100.50811559061522;92.1168844093848;5.18454;60.2858;-2.0;True;00:05:00;2021-01-03 11:26:00;13;1;6;WIXVI;encs_west;2;3.0;./img/258150500-258312000-WIXVI_-2.0.png;False
1922;56;258352500;257577000;ADMIRALEN;KL SALTFJORD;LFJJ;LGFT;34.0;95.21;;;;;0.0;0.0;17.253180555555552;5.297973958333334;False;False;4;4;2392.9818720583726;;;;;0.0;0.0;False;False;4;4;2392.9818720583726;;;;;0.0;0.0;-169.91524905639744;354.99100094360256;414.1035619262462;-123.425339267114;65.07466073288602;5.205963;60.391333;-2.0;True;00:05:00;2021-01-03 11:20:00;7;2;7;WIXVI;encs_west;1;1.0;;
1934;33;258267000;258196000;BANAK;BAUT;LNND;LMJY;37.06;41.0;;;;;0.0;0.0;2.0234479890046297;1.6546958188657406;False;False;16;16;291.94335066927346;;;;;0.0;0.0;False;False;16;16;291.94335066927346;;;;;0.0;0.0;149.3386698574373;316.4636698574373;274.234589357366;149.3386698574373;316.4636698574373;5.057931;60.8187;-2.0;True;00:06:00;2021-01-03 13:01:00;13;13;19;3PM17;encs_west;1;1.0;;
1961;48;258729000;259305000;EIDSVAAG PIONER;HAVILA VENUS;LFTA;LAZC;75.0;92.0;;;;;0.0;0.0;6.739490162037037;4.935719328703703;True;False;8;8;6664.521108076719;;;;;0.0;0.0;True;True;4;9;7256.435811746698;5768.6;19.0;4552.7;19.0;-0.1273992003342572;55.82292299097834;-170.44245145092148;20.05754854907849;4527.4677712823;143.45904604691214;264.05279604691214;5.075417;60.414375;-2.0;True;00:15:00;2021-01-03 17:08:00;16;1;16;OS3ZU;encs_west;1;1.0;;
1983;55;257952600;314208000;KRISTIAN G.JEBSEN 2;WILSON HUSUM;LECM;8PSQ;17.0;90.45;;;;;0.0;0.0;16.524920138888888;5.144444444444444;True;True;11;17;1180.1957846052533;366.6;0.0;4861.2;0.0;-0.1028509393699295;74.11751921625938;True;False;9;9;2985.981615817487;;;;;0.0;0.0;163.07132082880565;9.321320828805588;341.20287220362087;134.35755761994963;314.9825576199496;5.21319;60.3936;-2.0;True;00:05:00;2021-01-03 22:35:00;12;7;12;SA0TV;encs_west;1;1.0;./img/257952600-314208000-SA0TV_-2.0.png;False
1992;60;258244000;258568000;ACC MOSBY;SILEX;LJIT;LAHW;48.0;35.11;;;;;0.0;0.0;3.8374340277777774;1.9956827256944447;False;True;8;16;2156.8033591405547;1689.7;12.0;2748.6;0.0;0.5389683102384624;30.6322530700286;False;True;6;13;2413.6654697782733;1764.0;11.0;1737.1;0.0;0.8111049822934628;-36.0666619986221;-121.68393205278689;340.0035679472131;1638.111623180792;-119.48014284193584;280.73860715806416;5.153495;60.32895;-2.0;True;00:05:00;2019-01-04 02:57:00;12;5;10;QKXS2;encs_west;3;3.0;./img/258244000-258568000-QKXS2_-2.0.png;False
1993;60;258244000;305976000;ACC MOSBY;AMBER TRADER;LJIT;V2QO9;48.0;101.0;;;;;0.0;0.0;3.8374340277777774;2.0268307291666665;False;True;8;16;2175.5666319375205;1720.1;12.0;2786.9;0.0;0.5389683102384624;30.6322530700286;False;True;6;12;2436.0523885992247;1812.5;11.0;1606.5;0.0;0.6801883066957045;-34.34546901100848;-120.40360012181334;339.2838998781867;1652.5494152974732;-118.5475854825728;279.6711645174272;5.153495;60.32895;-2.0;True;00:05:00;2019-01-04 02:57:00;12;5;10;QKXS2;encs_west;3;3.0;./img/258244000-305976000-QKXS2_-2.0.png;False
2018;66;259344000;258221000;BOMLO;NYFJELL;LMWY;JWPR;116.625;67.01;;;;;0.0;0.0;7.069592013888889;4.235458622685186;False;True;9;15;5015.98612936678;3480.3;20.0;4409.3;0.0;-2.204701162312771;34.419022044276765;False;True;2;7;6478.6215030668345;2792.9;20.0;2581.1;20.0;0.1435826651307512;14.742056411859725;159.98252761161638;348.67002761161643;4293.792520604594;146.52759469685267;311.8283759468527;5.41544;60.12176;-2.0;True;00:12:00;2019-01-04 05:13:00;13;1;13;OTD7D;encs_west;2;2.0;./img/259344000-258221000-OTD7D_-2.0.png;False
2037;9;205691000;311646000;KONTICH;ESTHER SPIRIT;ONIP;C6FY6;181.7;249.86;;;;;0.0;0.0;6.270796440972222;1.8710153537326388;False;False;5;5;2297.39689648959;;;;;0.0;0.0;False;True;4;10;2538.424097742534;679.9;12.0;1309.1;11.0;0.0709179192557505;15.400643045441823;-167.96414818977493;16.41085181022501;1366.5336036848855;-136.66762019943258;73.95737980056742;4.29813;60.65632;-2.0;True;00:08:00;2019-01-04 06:34:00;11;1;9;SLU1A;encs_west;1;1.0;;
2050;69;258271000;257152000;BERGENSFJORD;NORBAR;LNZZ;LCSQ;130.0;82.0;;;;;0.0;0.0;8.722445746527779;5.073105468749999;True;False;9;9;2008.348129682706;;;;;0.0;0.0;True;True;12;18;1414.706319346873;650.2;17.0;549.9;0.0;-0.1200445368415574;16.79288541934307;163.27253841194582;6.272538411945826;493.3643379896861;-111.38897821838668;81.48602178161333;5.327372;60.044567;-2.0;True;00:16:00;2019-01-04 07:17:00;18;1;17;C52LZ;encs_west;1;1.0;;
2088;98;258220500;258143240;TIDEFJORD;;LAVB;;114.0;14.99;;;;;0.0;0.0;8.481299913194444;3.916610243055556;False;False;6;6;1320.342417708367;;;;;0.0;0.0;False;True;3;10;2142.541014776609;101.2;10.0;338.7;0.0;0.0388156942554211;-17.517613040075194;-168.45686545608302;351.2931345439169;417.03051447107015;135.94427990373103;289.069279903731;5.71703;60.0179;-2.0;True;00:08:00;2019-01-04 12:30:00;10;2;10;35FP5;encs_west;1;1.0;;
2109;21;257287000;257026800;FJORDSOL;STORD;LNPV;JXLL;20.0;87.0;;;;;0.0;0.0;10.51717361111111;6.378307291666667;False;True;5;10;403.15834358226977;136.6;0.0;134.2;0.0;-8.030936574473104;55.36437149263537;False;True;4;12;719.3341156931177;296.8;5.0;111.0;0.0;-6.341822418543029;0.1948335537969743;142.10309373378195;341.7280937337819;66.72285965094694;-40.79601340964658;111.7039865903534;5.75327;58.975;-2.0;True;00:05:00;2019-01-04 14:55:00;8;1;6;C93Z8;encs_west;1;1.0;./img/257287000-257026800-C93Z8_-2.0.png;False
2134;8;257084390;205772000;FAMITA;ANGELA;LAIN8;ONJZ;89.99;97.24;;;;;0.0;0.0;5.54061259920635;4.196511656746032;False;True;4;10;4880.039436316063;4026.5;12.0;5083.9;0.0;-0.0682828824333783;21.826376352720104;False;False;4;4;4880.039436316063;;;;;0.0;0.0;-115.43004938120552;348.56995061879445;4522.475945762452;-138.5082015142182;317.17929848578177;5.5295;59.0952;-2.0;True;00:07:00;2020-01-04 06:33:00;7;1;8;O2ZIG;encs_west;1;1.0;./img/257084390-205772000-O2ZIG_-2.0.png;False
2165;68;259386000;258672000;STAVANGERFJORD;RONJA POLARIS;LICY;LDHS;129.8;75.81;;;;;0.0;0.0;7.731939236111112;3.909777777777778;False;False;10;10;3041.249545828157;;;;;0.0;0.0;False;True;10;16;3041.249545828157;1143.9;20.0;1458.4;17.0;-1.551906105601918;0.6790442726057432;170.2803915686111;349.5303915686111;1571.9026973702892;121.06690896240706;283.816908962407;5.552454;59.156829;-2.0;True;00:10:00;2020-01-04 10:56:00;17;5;15;16ZS4;encs_west;1;1.0;;
2177;31;258352500;257492000;ADMIRALEN;KV BERGEN;LFJJ;LAQM;34.0;93.2;;;;;0.0;0.0;17.70814236111111;6.077544849537037;False;False;10;10;3064.489303293444;;;;;0.0;0.0;False;False;10;10;3064.489303293444;;;;;0.0;0.0;173.18150484147;339.93150484147003;1546.6966379998369;114.64071001875062;270.39071001875067;5.33878;59.778;-2.0;True;00:06:00;2020-01-04 11:01:00;14;7;13;X3A7B;encs_west;1;1.0;;
2179;31;259386000;258672000;STAVANGERFJORD;RONJA POLARIS;LICY;LDHS;129.8;75.81;;;;;0.0;0.0;7.776283275462963;3.0518344907407404;False;False;4;4;2543.933617451525;;;;;0.0;0.0;False;True;2;8;3019.099057666047;1143.9;12.0;1458.4;9.0;-1.376615509698884;1.5809607988420018;169.18450474308713;339.9345047430872;1571.8566887601455;121.13624046730344;283.8862404673034;5.537221;59.159929;-2.0;True;00:06:00;2020-01-04 10:56:00;9;1;7;X3A7B;encs_west;1;1.0;;
2212;106;219347000;258161000;STAVANGERFJORD;SEIVAAG;OYOW2;LHDO;170.0;56.0;;;;;0.0;0.0;10.380323350694445;5.440852864583333;False;True;2;5;2486.363716353656;31.4;9.0;447.1;9.0;-0.094122076542753;-2.509848796327072;False;False;5;5;1596.1714444256845;;;;;0.0;0.0;-167.24532963728163;6.7546703627184;363.3532716241762;-92.21001481204333;80.28998518795667;5.247895;60.167324;-2.0;True;00:08:00;2020-01-04 12:25:00;10;1;9;DKYE2;encs_west;2;2.0;./img/219347000-258161000-DKYE2_-2.0.png;True
2217;106;257055930;257072700;HUFTAROY;SAMBA;LEWQ;LMAN;134.0;31.12;;;;;0.0;0.0;8.795392361111112;5.134396701388889;False;True;9;19;1046.0509547818383;107.6;12.0;1650.8;0.0;-0.1329042116111889;28.09926419215568;False;True;2;7;2867.796438033904;404.3;10.0;151.9;12.0;0.1513050396993467;-5.972311386401702;139.91438029854473;336.5393802985447;424.59130937880576;74.2524664811169;259.25246648111687;5.371996;60.10192;-2.0;True;00:10:00;2020-01-04 12:28:00;13;1;11;DKYE2;encs_west;2;2.0;./img/257055930-257072700-DKYE2_-2.0.png;True
2219;106;257055990;257084390;FLATOY;FAMITA;LEVN;LAIN8;134.0;89.99;;;;;0.0;0.0;8.591043595679013;6.126890432098765;True;False;10;10;2780.892475447406;;;;;0.0;0.0;True;True;9;16;2919.12207692656;1235.1;20.0;1709.7;20.0;0.0247355306389378;7.839479748369437;166.95696758605715;328.70696758605715;1874.2944325799008;-146.46495303063114;50.83192196936885;5.333943;60.026733;-2.0;True;00:18:00;2020-01-04 12:34:00;19;1;19;DKYE2;encs_west;1;1.0;;
2220;106;257056190;258146220;LYSOY;258146220;LEVT;;134.0;0.0;;0.0;;0.0;0.0;0.0;8.863831845238096;3.211545758928571;False;True;5;11;5902.440194529728;1095.0;13.0;3436.3;15.0;-3.2106699440760806;38.41088495824208;False;False;6;6;5553.662258366106;;;;;0.0;0.0;155.77057106415884;3.5674460641588266;4218.682699611345;147.03006474262813;322.63162724262816;5.40978;60.117675;-2.0;True;00:07:00;2020-01-04 12:27:00;12;3;10;DKYE2;encs_west;1;1.0;./img/257056190-258146220-DKYE2_-2.0.png;False
2221;106;257063530;257009000;ROSEDOKTOREN;257009000;LFOF;;21.752;0.0;;0.0;;0.0;0.0;0.0;12.80484375;3.4313042534722227;True;True;2;5;5273.036067580044;2555.8;8.0;2665.6;7.0;-0.0805519077185472;17.02812551376536;True;True;2;12;5273.036067580044;2555.8;8.0;898.3;0.0;-0.0788351694838249;27.64618240517663;-129.074563428042;33.67543657195799;492.7631987070384;50.34872194191528;235.3487219419153;5.8755;59.7651;-2.0;True;00:10:00;2020-01-04 12:27:00;12;1;11;DKYE2;encs_west;1;1.0;./img/257063530-257009000-DKYE2_-2.0.png;False
2231;106;258352500;258161000;ADMIRALEN;SEIVAAG;LFJJ;LHDO;34.0;56.0;;;;;0.0;0.0;16.530546875;5.445206886574074;False;True;2;7;5522.97614334879;2860.9;8.0;764.6;8.0;0.5256668130147251;-4.85263398154656;False;False;4;4;3961.736534652429;;;;;0.0;0.0;130.45141793384764;316.95141793384767;965.5090729765304;70.0527310720946;278.0527310720946;5.18828;60.1353;-2.0;True;00:06:00;2020-01-04 12:24:00;9;1;7;DKYE2;encs_west;3;3.0;./img/258352500-258161000-DKYE2_-2.0.png;False
2237;102;219347000;258161000;STAVANGERFJORD;SEIVAAG;OYOW2;LHDO;170.0;56.0;;;;;0.0;0.0;10.363529265873014;5.438986855158731;False;False;4;4;1596.0928951661865;;;;;0.0;0.0;False;False;4;4;1596.0928951661865;;;;;0.0;0.0;-165.94263216837194;8.307367831628094;363.4411231547573;-92.21754679300588;80.2824532069941;5.228556;60.181022;-2.0;True;00:07:00;2020-01-04 12:25:00;9;1;8;TXQ4C;encs_west;2;2.0;;
2241;102;257055930;257072700;HUFTAROY;SAMBA;LEWQ;LMAN;134.0;31.12;;;;;0.0;0.0;8.800929783950616;5.139085648148148;False;True;8;18;1046.144316048214;107.6;11.0;1650.8;0.0;-0.1329042116111889;28.09926419215568;False;False;5;5;1754.8857085292002;;;;;0.0;0.0;134.2959437390759;339.79594373907594;424.59130937880576;74.2524664811169;259.25246648111687;5.371996;60.10192;-2.0;True;00:09:00;2020-01-04 12:28:00;12;1;10;TXQ4C;encs_west;2;2.0;./img/257055930-257072700-TXQ4C_-2.0.png;False
2243;102;257055990;257084390;FLATOY;FAMITA;LEVN;LAIN8;134.0;89.99;;;;;0.0;0.0;8.575807802287581;6.127231924019607;True;False;9;9;2780.9060915464224;;;;;0.0;0.0;True;True;8;15;2919.12207692656;1235.1;19.0;1709.7;19.0;0.0247355306389378;7.839479748369437;163.9466536748555;354.1966536748555;1874.2268299221453;-146.46720564988595;50.829669350114045;5.333943;60.026733;-2.0;True;00:17:00;2020-01-04 12:34:00;18;1;18;TXQ4C;encs_west;1;1.0;;
2244;102;257063530;257009000;ROSEDOKTOREN;257009000;LFOF;;21.752;0.0;;0.0;;0.0;0.0;0.0;12.810202546296296;3.435211709104939;True;False;5;5;3134.266237893652;;;;;0.0;0.0;True;False;5;5;3134.266237893652;;;;;0.0;0.0;-127.63994517995356;30.110054820046454;492.8510525503596;50.34316833499481;235.34316833499483;5.92745;59.7715;-2.0;True;00:09:00;2020-01-04 12:27:00;11;1;10;TXQ4C;encs_west;1;1.0;;
2256;100;219347000;258161000;STAVANGERFJORD;SEIVAAG;OYOW2;LHDO;170.0;56.0;;;;;0.0;0.0;10.363529265873014;5.438986855158731;False;False;4;4;1596.1714444256845;;;;;0.0;0.0;False;False;4;4;1596.1714444256845;;;;;0.0;0.0;-165.94263216837194;8.307367831628094;363.353271624173;-92.21001481204304;80.28998518795694;5.228556;60.181022;-2.0;True;00:07:00;2020-01-04 12:25:00;9;1;8;M0V5I;encs_west;2;2.0;;
2261;100;257055930;257072700;HUFTAROY;SAMBA;LEWQ;LMAN;134.0;31.12;;;;;0.0;0.0;8.800929783950616;5.139085648148148;False;True;8;14;1046.0509547818383;107.6;11.0;798.7;0.0;-0.1061932937664149;14.083485381873835;False;False;5;5;1754.976159382241;;;;;0.0;0.0;134.2959437390759;339.79594373907594;424.59130937880576;74.2524664811169;259.25246648111687;5.371996;60.10192;-2.0;True;00:09:00;2020-01-04 12:28:00;12;1;10;M0V5I;encs_west;1;1.0;./img/257055930-257072700-M0V5I_-2.0.png;True
2262;100;257063530;257009000;ROSEDOKTOREN;257009000;LFOF;;21.752;0.0;;0.0;;0.0;0.0;0.0;12.810202546296296;3.435211709104939;True;False;5;5;3134.3555446056303;;;;;0.0;0.0;True;True;2;11;4676.333081592883;1237.1;8.0;898.3;0.0;-0.1023689301709818;25.866870175382243;-127.63994517995356;30.110054820046454;492.8510525503596;50.34316833499481;235.34316833499483;5.92745;59.7715;-2.0;True;00:09:00;2020-01-04 12:27:00;11;1;10;M0V5I;encs_west;1;1.0;;
2271;100;258352500;258161000;ADMIRALEN;SEIVAAG;LFJJ;LHDO;34.0;56.0;;;;;0.0;0.0;16.811079861111114;5.4434652777777774;False;True;2;5;4749.310502588749;534.8;7.0;1055.4;7.0;-0.3431585423661776;2.549305981871937;False;False;3;3;3961.736534652429;;;;;0.0;0.0;129.42328049724856;337.1732804972486;965.5090729765304;70.0527310720946;278.0527310720946;5.18792;60.1446;-2.0;True;00:05:00;2020-01-04 12:24:00;8;1;6;M0V5I;encs_west;3;3.0;./img/258352500-258161000-M0V5I_-2.0.png;False
2290;52;258101500;258196000;;BAUT;;LMJY;;41.0;;;;;0.0;0.0;1.7064416956018518;1.1660405815972223;False;False;9;9;223.80008936547367;;;;;0.0;0.0;False;True;8;13;273.23048878191094;428.4;0.0;165.5;0.0;-1.0234339277028277;10.894076080148968;148.62432046665316;348.6243204666532;88.90455556384128;97.4199725534666;301.6699725534666;5.040096;60.817439;-2.0;True;00:06:00;2020-01-04 12:50:00;14;6;12;8HYEQ;encs_west;1;1.0;;
2292;52;258352500;244020000;ADMIRALEN;THUN EVOLVE;LFJJ;PBRI;34.0;115.0;;;;;0.0;0.0;16.859538690476192;6.150941220238095;False;True;7;13;1202.750618374405;502.2;8.0;3300.9;0.0;-0.3122503866917974;-56.789394542350166;False;True;3;8;3711.101379644604;1383.2;6.0;552.5;0.0;-0.2155601416357999;-30.540287052862777;136.34429527655206;354.84429527655203;108.87189720033328;-31.08768391442353;149.41231608557646;5.179947;60.339167;-2.0;True;00:07:00;2020-01-04 12:45:00;9;2;9;8HYEQ;encs_west;1;1.0;./img/258352500-244020000-8HYEQ_-2.0.png;False
2293;52;259132000;257397720;KNESTER;;JWNI;;72.0;9.93;;;;;0.0;0.0;5.7915190972222215;3.669938151041667;False;False;7;7;936.5391289209288;;;;;0.0;0.0;False;True;12;17;365.0983976957442;202.3;13.0;475.9;0.0;0.0291137287967961;-3.961799424244473;174.708528404668;351.958528404668;196.27429785888845;56.64616656336299;243.14616656336293;5.304057;59.818273;-2.0;True;00:12:00;2020-01-04 12:51:00;15;1;13;8HYEQ;encs_west;1;1.0;;
2295;78;229061000;257152000;SEA CARGO EXPRESS;NORBAR;9HA3034;LCSQ;119.0;82.0;;;;;0.0;0.0;7.2933217592592605;4.430384837962963;False;False;5;5;1551.1420470092403;;;;;0.0;0.0;False;False;5;5;1551.1420470092403;;;;;0.0;0.0;-179.24947084979388;350.00052915020615;510.4739954199408;85.40558151688369;263.40558151688373;5.461116;59.117371;-2.0;True;00:09:00;2020-01-04 13:46:00;16;1;10;47CBR;encs_west;1;1.0;;
2307;78;258487000;259132000;RONJA STRAND;KNESTER;LDQO;JWNI;85.0;72.0;;;;;0.0;0.0;4.312491319444444;1.8876617588141025;False;False;7;7;1666.6897881729462;;;;;0.0;0.0;False;True;7;12;1666.6897881729462;265.9;15.0;442.8;14.0;-0.5638780357797963;-11.986561106053616;162.31113951323195;351.3111395132319;369.1892874935704;103.06880455371493;273.943804553715;5.397274;59.68719;-2.0;True;00:13:00;2020-01-04 13:45:00;15;1;14;47CBR;encs_west;1;1.0;;
2321;79;258108500;314423000;RYGERCRUISE;WILSON ELBE;LNWS;8PAK7;23.33;82.37;;;;;0.0;0.0;13.632241898148148;4.81139525462963;False;True;2;13;7209.381761288538;4657.4;9.0;292.6;15.0;-0.1711597469675387;56.88623551137361;False;True;2;7;7209.381761288538;4657.4;9.0;2847.6;12.0;-0.0558327841906667;12.831347388810588;153.20963084264298;18.08463084264296;447.30541020649696;82.46819875133862;255.84319875133863;5.317483;60.542233;-2.0;True;00:15:00;2020-01-04 13:56:00;16;1;16;W2ADY;encs_west;1;1.0;./img/258108500-314423000-W2ADY_-2.0.png;False
2335;64;258416000;258225000;EKSPRESSEN;ELIESER 6;LCBK;LEYV;33.0;39.58;;;;;0.0;0.0;11.801677083333333;3.518317708333333;False;True;6;15;1362.433679119835;312.5;7.0;34.6;17.0;-11.433055243683256;-8.171463514989536;False;True;6;15;1362.433679119835;312.5;7.0;34.6;17.0;-1.2053495028557026;-49.95150315317559;170.03748965473582;3.412489654735793;78.9253444718503;120.04794645202428;58.04794645202427;5.27083;60.4022;-2.0;True;00:05:00;2020-01-04 14:17:00;18;3;8;4ERCN;encs_west;1;1.0;./img/258416000-258225000-4ERCN_-2.0.png;False
2337;22;257338000;259551000;FJORDLYS;RYGERBUEN;LNHP;LJKT;28.0;40.0;;;;;0.0;0.0;14.094170138888888;3.971671875;False;True;2;7;2179.3124649760457;1514.1;4.0;485.0;0.0;-5.056595069971002;-7.172557881350285;False;True;2;7;2179.3124649760457;1514.1;4.0;485.0;0.0;0.0621182531350608;-12.689056824604275;153.72414327053522;328.9741432705352;97.84114676351638;98.35194652876956;101.8050715287696;5.80221;58.9924;-2.0;True;00:05:00;2020-01-04 15:33:00;11;1;6;7ZWDT;encs_west;1;1.0;./img/257338000-259551000-7ZWDT_-2.0.png;False
2348;97;257055990;259620000;FLATOY;ATLOEY VIKING;LEVN;LJSY;134.0;34.0;;;;;0.0;0.0;8.756685363247865;4.221752470619658;False;True;4;11;3138.9560366465566;247.6;14.0;594.4;15.0;-0.4352865745978338;-5.019801355389157;False;False;7;7;2318.768511516404;;;;;0.0;0.0;177.9796029912193;11.67882174121933;868.6926499055904;-133.91059152440357;66.23784597559646;5.3376;60.00745;-2.0;True;00:13:00;2020-01-04 15:49:00;14;1;14;7SWX4;encs_west;2;2.0;./img/257055990-259620000-7SWX4_-2.0.png;False
2353;97;257188000;219042000;ISLAND COMMANDER;ESVAGT CAPRI;LALW;OULY2;93.0;46.0;;;;;0.0;0.0;4.98094026199495;3.254738005050505;False;True;6;12;1022.5236085294032;812.6;12.0;198.5;0.0;1.7925774904872886;7.374309544204658;False;False;6;6;1022.5236085294032;;;;;0.0;0.0;171.65250112860932;354.6525011286093;180.06648772051116;-93.0769610686112;86.79803893138882;5.530125;58.901373;-2.0;True;00:11:00;2020-01-04 15:48:00;13;1;12;7SWX4;encs_west;1;1.0;./img/257188000-219042000-7SWX4_-2.0.png;True
2360;97;258352500;257029700;ADMIRALEN;VIKINGEN;LFJJ;LEVF;34.0;84.0;;;;;0.0;0.0;17.22719039351852;5.594918258101853;False;True;12;17;1399.2293021517269;545.3;13.0;3255.7;0.0;-12.30592757638924;113.50947360423928;False;False;7;7;4715.508304520303;;;;;0.0;0.0;159.2020799192288;38.202079919228815;1093.116155767532;129.07544818185127;286.26294818185124;5.505665;59.757275;-2.0;True;00:12:00;2020-01-04 15:48:00;13;1;13;7SWX4;encs_west;1;1.0;./img/258352500-257029700-7SWX4_-2.0.png;False
2364;28;314473000;257479000;WILSON WISLA;BERGEN LNG;8PAQ9;LATS;83.0;49.25;;;;;0.0;0.0;5.453914930555555;4.566196831597223;False;True;3;8;455.90424433207664;352.2;5.0;250.7;9.0;-0.0337366225075159;13.926240669453872;False;True;2;7;540.234069640195;161.4;9.0;251.1;9.0;-0.2017690521558508;5.780698033439076;148.68176782282308;333.18176782282313;226.7240834141712;-98.395681968588;83.10431803141203;5.552789;58.979057;-2.0;True;00:08:00;2020-01-04 16:31:00;11;1;9;VIQQ9;encs_west;1;1.0;./img/314473000-257479000-VIQQ9_-2.0.png;True
2367;6;314292000;257468000;SAMSKIP COMMANDER;NORMAND DROTT;8PVT;LDRO;101.0;95.0;;;;;0.0;0.0;6.965899305555555;4.394480902777778;False;True;7;13;632.1966308040569;332.5;8.0;441.8;0.0;0.0221790597014033;-3.83255304271678;False;False;8;8;483.1856372037564;;;;;0.0;0.0;124.30267692675;347.55267692675005;160.6798680606881;94.76029821105227;270.51029821105226;4.773402;60.87785;-2.0;True;00:05:00;2020-01-04 16:38:00;11;6;11;FUHZD;encs_west;1;1.0;./img/314292000-257468000-FUHZD_-2.0.png;True
2374;28;229061000;257479000;SEA CARGO EXPRESS;BERGEN LNG;9HA3034;LATS;119.0;49.25;;;;;0.0;0.0;7.568964843750001;4.681745876736112;False;False;5;5;959.991088500305;;;;;0.0;0.0;False;False;5;5;959.991088500305;;;;;0.0;0.0;-164.9298743353427;335.07012566465727;367.0356930871959;98.04415089438716;276.7941508943872;5.36044;59.16298;-2.0;True;00:08:00;2020-01-04 18:00:00;10;1;9;5L5G4;encs_west;1;1.0;;
2380;33;258829000;376317000;NORSUND;376317000;LAYK7;;89.48;0.0;;0.0;;0.0;0.0;0.0;4.859453914141414;4.181139914772728;False;True;10;17;3713.911669655058;3124.5;19.0;4207.2;0.0;0.0443118949502197;-35.75832247890769;False;False;6;6;3898.743954147282;;;;;0.0;0.0;-142.9561987212927;37.543801278707285;3670.746944424255;-138.55725913041863;42.94274086958138;5.427453;58.760555;-2.0;True;00:11:00;2020-01-04 18:39:00;11;1;12;O3TIM;encs_west;1;1.0;./img/258829000-376317000-O3TIM_-2.0.png;False
2387;32;257060720;259397000;TAUPO;RIPNES;LFFJ;JWPX;43.0;58.6;;;;;0.0;0.0;5.906063368055555;5.081746527777779;False;True;2;6;4469.814587877219;4471.1;0.0;4097.3;14.0;0.0522655963315434;-19.150854998636408;False;True;2;7;4469.814587877219;4471.1;0.0;4162.7;13.0;-0.0764708406747152;11.849529888896354;-157.34596492285766;328.15403507714234;4010.1128986600847;133.56441915519807;33.56441915519806;5.515896;59.194811;-2.0;True;00:10:00;2020-01-04 20:46:00;16;1;11;51ZEZ;encs_west;1;1.0;./img/257060720-259397000-51ZEZ_-2.0.png;False
2392;33;219347000;212979000;STAVANGERFJORD;FRAKT VIK;OYOW2;5BKU4;170.0;90.0;;;;;0.0;0.0;10.511278935185189;6.047401620370371;False;True;9;14;650.4932897424836;454.3;10.0;1165.0;0.0;-0.513686927390725;-23.031114644660867;False;True;9;14;650.4932897424836;454.3;10.0;1165.0;0.0;-0.4356010726772354;-26.869228026456742;-178.49192663867356;357.5080733613264;474.5384389066892;95.00257605997406;273.00257605997405;5.516679;58.873129;-2.0;True;00:09:00;2020-01-04 21:58:00;11;1;10;SIVLQ;encs_west;1;1.0;./img/219347000-212979000-SIVLQ_-2.0.png;False
2405;29;257056190;258053000;LYSOY;RONJA TIND;LEVT;LHIX;134.0;70.0;;;;;0.0;0.0;6.945;2.807052331349207;False;True;6;12;888.0883852410083;454.5;8.0;872.4;0.0;-0.0185160303679556;-27.6692075136026;False;True;7;12;674.2706874838926;412.8;8.0;872.4;0.0;-0.2184661964802825;-26.76254885653726;-179.90402854845215;353.7990964515478;260.00255767971765;83.97954204000487;262.8857920400049;5.342122;60.07285;-2.0;True;00:07:00;2021-01-04 01:14:00;10;1;8;LKJF3;encs_west;1;1.0;./img/257056190-258053000-LKJF3_-2.0.png;False
2420;56;257056190;257058300;LYSOY;;LEVT;;134.0;;;;;;0.0;0.0;9.113972800925929;3.455418836805556;False;True;3;10;1942.0567705399344;277.4;7.0;1511.6;0.0;-0.0850509270201458;-0.1645617230930288;False;True;6;11;931.951635011176;341.3;7.0;1986.7;0.0;-2.760196006983956;76.2378066733808;-128.9259791406617;9.324020859338292;721.8697943535248;127.16980562358307;275.79480562358304;5.32616;60.046333;-2.0;True;00:06:00;2021-01-04 09:14:00;8;1;7;BRXRQ;encs_west;3;3.0;./img/257056190-257058300-BRXRQ_-2.0.png;False
2433;54;257056190;257033570;LYSOY;;LEVT;;134.0;;;;;;0.0;0.0;9.052155257936509;6.334097222222224;False;True;6;12;5559.942895390211;5232.5;11.0;2917.3;17.0;-0.0949693355267795;8.806889479515055;False;True;4;12;5875.954778587043;5002.2;15.0;2917.3;17.0;-4.503940267415531;-16.86600175430405;126.4574848287062;8.082484828706251;3691.7896215792152;-145.95219355438354;84.54780644561643;5.32696;60.0172;-2.0;True;00:07:00;2021-01-04 09:24:00;15;1;8;F30CF;encs_west;2;2.0;./img/257056190-257033570-F30CF_-2.0.png;False
2441;57;257055590;258338500;;;;;;;;;;;0.0;0.0;8.590418402777777;4.63;False;False;3;3;2959.243180274326;;;;;0.0;0.0;False;False;3;3;2959.243180274326;;;;;0.0;0.0;174.06318278910695;18.56318278910689;2209.3265693418903;-64.07415976730161;97.17584023269843;5.217799;59.978129;-2.0;True;00:05:00;2021-01-04 12:07:00;16;1;6;2RHD7;encs_west;1;2.0;;
2477;53;229061000;258255000;SEA CARGO EXPRESS;;9HA3034;;119.0;57.07;;;;;0.0;0.0;7.111792534722223;2.983551703559028;False;True;6;12;1684.864448553653;897.9;8.0;1093.5;0.0;0.0305610778677891;45.11399997598901;False;True;2;12;2749.405974024206;1927.0;9.0;1093.5;0.0;-3.2104166118959903;61.06706007660925;149.32080673443625;6.320806734436278;504.7951069493251;-137.78880307974808;99.58619692025192;5.2671;60.400486;-2.0;True;00:08:00;2019-01-05 06:43:00;11;1;9;WOIYL;encs_west;2;2.0;./img/229061000-258255000-WOIYL_-2.0.png;False
2489;44;257893800;257790480;SJOBRAND;;LDLE;;18.0;;;;;;0.0;0.0;14.383545138888888;1.0081905381944445;False;False;10;10;7178.799680308679;;;;;0.0;0.0;False;True;10;16;7178.799680308679;2055.0;17.0;195.7;17.0;0.2009861569473656;-61.53391889805217;-121.94090237738752;317.55909762261246;388.4701404226601;-140.1861091629872;275.1263908370128;5.19144;60.3851;-2.0;True;00:05:00;2019-01-05 12:43:00;18;8;13;NM1GO;encs_west;3;2.0;;
2490;44;257893800;259367000;SJOBRAND;ISLAND VALIANT;LDLE;JWMY;18.0;93.4;;;;;0.0;0.0;14.411334325396824;4.968178323412698;False;False;11;11;2610.49970886802;;;;;0.0;0.0;False;True;14;18;999.3026618597604;869.5;0.0;2930.4;0.0;-0.494194444752833;-15.546255627545614;-167.89937224131378;327.2881277586862;711.897022047429;101.51408132723024;254.5765813272302;5.20364;60.39;-2.0;True;00:07:00;2019-01-05 12:41:00;16;8;15;NM1GO;encs_west;4;2.0;;
2492;44;258293000;231523000;MV EIDHOLM;EIKEFJORD;LNWA;OZ2063;71.96;64.3;;;;;0.0;0.0;5.297839988425927;4.41531322337963;False;True;8;14;3133.5373445995388;2677.1;13.0;3525.5;0.0;-0.3702731345525021;-51.84571674289949;False;False;9;9;3020.8435924423497;;;;;0.0;0.0;113.5986133467144;354.59861334671444;2815.8253958653104;143.26169308875046;36.386693088750455;4.942581;60.861922;-2.0;True;00:06:00;2019-01-05 12:36:00;11;6;12;NM1GO;encs_west;1;1.0;./img/258293000-231523000-NM1GO_-2.0.png;False
2514;93;257724800;257029750;;;;;;;;;;;0.0;0.0;4.355361689814814;3.5493094135802474;False;True;9;17;5133.818547630988;5135.2;0.0;5562.6;0.0;0.1160539121935944;27.90118934317388;False;True;5;16;5553.242084584468;5514.8;0.0;5358.5;0.0;0.0693915400579956;-7.318955688102668;-113.84281175196575;350.95406324803423;4976.233845992371;-138.85520586958287;306.34791913041715;5.348432;59.981271;-2.0;True;00:09:00;2019-01-05 14:42:00;12;3;12;E16Q8;encs_west;1;1.0;./img/257724800-257029750-E16Q8_-2.0.png;False
2522;93;259402000;257029750;BASTO II;;LIPU;;109.0;;;;;;0.0;0.0;7.980419921875001;3.542834201388889;False;False;7;7;3672.9389349674775;;;;;0.0;0.0;False;True;5;16;4209.274203470241;1980.7;9.0;1463.1;0.0;0.0693915400579956;-7.318955688102668;-134.16695278538552;34.02835971461449;1470.6831099866497;-58.666221687803485;102.13065331219651;5.336213;59.989533;-2.0;True;00:08:00;2019-01-05 14:48:00;18;3;11;E16Q8;encs_west;2;3.0;;
2525;97;219347000;257288400;STAVANGERFJORD;HOEGSFJORD;OYOW2;LGCO;170.0;84.7;;;;;0.0;0.0;11.82418402777778;6.831604042658731;False;True;10;17;2447.645092737096;2039.0;11.0;900.1;18.0;0.5326566929409884;-41.48700205152874;False;True;16;20;1300.492345229301;1182.4;0.0;1019.6;0.0;0.0831126705801459;-4.105725399053092;-117.52801396507058;15.09698603492943;784.0224996771454;93.92969066953084;273.3046906695308;5.55667;59.7985;-2.0;True;00:14:00;2019-01-05 15:03:00;19;3;17;CSMO3;encs_west;1;1.0;./img/219347000-257288400-CSMO3_-2.0.png;False
2532;97;257379400;257140700;STJERNSUND;;LIVT;;15.0;10.62;;;;;0.0;0.0;11.154334490740744;3.317764756944444;True;False;10;10;1362.8743925982264;;;;;0.0;0.0;True;True;11;17;896.0097544111779;281.0;12.0;252.5;0.0;-1.9188973702902383;64.77839883791708;-168.76004201402927;336.4899579859707;165.5145008753011;59.68851834698691;235.0635183469869;4.82032;61.0909;-2.0;True;00:06:00;2019-01-05 14:57:00;13;7;13;CSMO3;encs_west;1;1.0;;
2537;97;257835900;258257030;AMB RYGERDOKTOREN;258257030;LLZS;;19.0;0.0;;0.0;;0.0;0.0;0.0;11.163903769841273;3.4033141121031747;True;True;9;10;4060.395474581264;1413.9;15.0;1659.9;13.0;3.224159822803572;1.906241553340746;True;False;10;10;3527.406857735579;;;;;0.0;0.0;126.41901573851544;2.762765738515464;1605.2039621182105;-132.0439434933967;83.6123065066033;5.750165;58.97445;-2.0;True;00:07:00;2019-01-05 14:59:00;15;7;14;CSMO3;encs_west;2;2.0;./img/257835900-258257030-CSMO3_-2.0.png;False
2550;48;257605000;231523000;FROYA;EIKEFJORD;LCNR;OZ2063;35.0;64.3;;;;;0.0;0.0;14.449228670634922;4.820045882936507;False;True;5;13;4857.277781844474;384.9;11.0;3775.9;0.0;0.6707760412809618;-59.82027071378094;False;False;4;4;5541.010770608554;;;;;0.0;0.0;-116.4521935585438;7.954056441456228;2288.494424288599;-95.00696673444504;70.10240826555497;5.01917;61.0219;-2.0;True;00:07:00;2019-01-05 15:08:00;10;1;8;HYDWM;encs_west;1;1.0;./img/257605000-231523000-HYDWM_-2.0.png;False
